{"type": "FeatureCollection", "features": [{"type": "Feature", "geometry": {"type": "Point", "coordinates": [0.50282, 50.8449367]}, "properties": {"id": 241881038, "addr:place": "Ravenside Retail & Leisure Park", "camera:mount": "wall", "camera:type": "dome", "man_made": "surveillance", "operator": "Land Securities", "surveillance": "outdoor", "surveillance:type": "camera", "surveillance:zone": "shop", "data_source": "planet_osm"}}, {"type": "Feature", "geometry": {"type": "Point", "coordinates": [0.5790931, 50.8572865]}, "properties": {"id": 2926610545, "camera:mount": "wall", "camera:type": "dome", "man_made": "surveillance", "surveillance": "outdoor", "surveillance:type": "camera", "data_source": "planet_osm"}}, {"type": "Feature", "geometry": {"type": "Point", "coordinates": [0.4594963, 50.8357866]}, "properties": {"id": 3965162721, "camera:direction": "250", "camera:mount": "pole", "camera:type": "panning", "man_made": "surveillance", "operator": "Community Supporters", "surveillance": "outdoor", "surveillance:type": "camera", "surveillance:zone": "beach", "data_source": "planet_osm"}}, {"type": "Feature", "geometry": {"type": "Point", "coordinates": [0.4741529, 50.8376343]}, "properties": {"id": 4118720993, "addr:street": "Channel View West", "camera:mount": "pole", "camera:type": "panning", "man_made": "surveillance", "operator": "Rother District Council", "operator:type": "government", "operator:wikidata": "Q73072720", "source:start_date": "Bexhill Observer 1998-01-23 P.2", "start_date": "1998-02", "surveillance": "outdoor", "surveillance:type": "camera", "surveillance:zone": "town", "data_source": "planet_osm"}}, {"type": "Feature", "geometry": {"type": "Point", "coordinates": [0.4771596, 50.839658]}, "properties": {"id": 4118720996, "addr:street": "Cantelupe Road", "camera:mount": "pole", "camera:type": "panning", "man_made": "surveillance", "operator": "Rother District Council", "source:start_date": "Bexhill Observer 1998-01-23 P.2", "start_date": "1998-02", "surveillance": "outdoor", "surveillance:type": "camera", "surveillance:zone": "town", "data_source": "planet_osm"}}, {"type": "Feature", "geometry": {"type": "Point", "coordinates": [0.4697747, 50.8400301]}, "properties": {"id": 4118720997, "addr:street": "Sackville Road", "camera:mount": "pole", "camera:type": "panning", "man_made": "surveillance", "operator": "Rother District Council", "operator:type": "government", "operator:wikidata": "Q73072720", "source:start_date": "Bexhill Observer 1998-01-23 P.2", "start_date": "1998-02", "surveillance": "outdoor", "surveillance:type": "camera", "surveillance:zone": "town", "data_source": "planet_osm"}}, {"type": "Feature", "geometry": {"type": "Point", "coordinates": [0.4735668, 50.8403767]}, "properties": {"id": 4118720998, "addr:street": "Devonshire Square", "camera:mount": "pole", "camera:type": "panning", "man_made": "surveillance", "operator": "Rother District Council", "operator:type": "government", "operator:wikidata": "Q73072720", "source:start_date": "Bexhill Observer 1998-01-23 P.2", "start_date": "1998-02", "surveillance": "outdoor", "surveillance:type": "camera", "surveillance:zone": "town", "data_source": "planet_osm"}}, {"type": "Feature", "geometry": {"type": "Point", "coordinates": [0.4716647, 50.8413482]}, "properties": {"id": 4118721002, "addr:street": "Buckhurst Road", "camera:mount": "pole", "camera:type": "panning", "man_made": "surveillance", "operator": "Rother District Council", "source:start_date": "Bexhill Observer 1998-01-23 P.2", "start_date": "1998-02", "surveillance": "outdoor", "surveillance:type": "camera", "surveillance:zone": "town", "data_source": "planet_osm"}}, {"type": "Feature", "geometry": {"type": "Point", "coordinates": [0.5041882, 50.8440373]}, "properties": {"id": 4118721003, "addr:place": "Ravenside Retail & Leisure Park", "camera:mount": "pole", "camera:type": "dome", "man_made": "surveillance", "operator": "Land Securities", "surveillance": "outdoor", "surveillance:type": "camera", "surveillance:zone": "shop", "data_source": "planet_osm"}}, {"type": "Feature", "geometry": {"type": "Point", "coordinates": [0.4979796, 50.8440983]}, "properties": {"id": 4118721005, "addr:place": "Ravenside Retail & Leisure Park", "camera:mount": "pole", "camera:type": "dome", "man_made": "surveillance", "operator": "Land Securities", "surveillance": "outdoor", "surveillance:type": "camera", "surveillance:zone": "shop", "data_source": "planet_osm"}}, {"type": "Feature", "geometry": {"type": "Point", "coordinates": [0.5000831, 50.844322]}, "properties": {"id": 4118721007, "addr:place": "Ravenside Retail & Leisure Park", "camera:mount": "pole", "camera:type": "dome", "man_made": "surveillance", "operator": "Land Securities", "surveillance": "outdoor", "surveillance:type": "camera", "surveillance:zone": "shop", "data_source": "planet_osm"}}, {"type": "Feature", "geometry": {"type": "Point", "coordinates": [0.4976517, 50.8446199]}, "properties": {"id": 4118721009, "addr:place": "Ravenside Retail & Leisure Park", "camera:mount": "pole", "camera:type": "panning", "man_made": "surveillance", "surveillance": "outdoor", "surveillance:type": "camera", "surveillance:zone": "shop", "data_source": "planet_osm"}}, {"type": "Feature", "geometry": {"type": "Point", "coordinates": [0.5001504, 50.8446474]}, "properties": {"id": 4118721010, "addr:place": "Ravenside Retail & Leisure Park", "camera:mount": "pole", "camera:type": "dome", "man_made": "surveillance", "operator": "Land Securities", "surveillance": "outdoor", "surveillance:type": "camera", "surveillance:zone": "shop", "data_source": "planet_osm"}}, {"type": "Feature", "geometry": {"type": "Point", "coordinates": [0.5012646, 50.8446872]}, "properties": {"id": 4118721011, "addr:place": "Ravenside Retail & Leisure Park", "camera:mount": "pole", "camera:type": "dome", "man_made": "surveillance", "operator": "Land Securities", "surveillance": "outdoor", "surveillance:type": "camera", "surveillance:zone": "shop", "data_source": "planet_osm"}}, {"type": "Feature", "geometry": {"type": "Point", "coordinates": [0.5038597, 50.8447418]}, "properties": {"id": 4118721012, "addr:place": "Ravenside Retail & Leisure Park", "camera:mount": "pole", "camera:type": "dome", "man_made": "surveillance", "operator": "Land Securities", "surveillance": "outdoor", "surveillance:type": "camera", "surveillance:zone": "shop", "data_source": "planet_osm"}}, {"type": "Feature", "geometry": {"type": "Point", "coordinates": [0.5036075, 50.844879]}, "properties": {"id": 4118721013, "addr:place": "Ravenside Retail & Leisure Park", "camera:mount": "pole", "camera:type": "panning", "man_made": "surveillance", "operator": "Rother District Council", "surveillance": "outdoor", "surveillance:type": "camera", "surveillance:zone": "shop", "data_source": "planet_osm"}}, {"type": "Feature", "geometry": {"type": "Point", "coordinates": [0.4986123, 50.8451159]}, "properties": {"id": 4118721014, "addr:place": "Ravenside Retail & Leisure Park", "camera:mount": "pole", "camera:type": "dome", "man_made": "surveillance", "operator": "Land Securities", "surveillance": "outdoor", "surveillance:type": "camera", "surveillance:zone": "shop", "data_source": "planet_osm"}}, {"type": "Feature", "geometry": {"type": "Point", "coordinates": [0.4721712, 50.8558141]}, "properties": {"id": 4118721036, "addr:street": "Ninfield Road", "camera:mount": "pole", "camera:type": "panning", "man_made": "surveillance", "operator": "Rother District Council", "surveillance": "outdoor", "surveillance:type": "camera", "surveillance:zone": "town", "data_source": "planet_osm"}}, {"type": "Feature", "geometry": {"type": "Point", "coordinates": [0.4699577, 50.8563632]}, "properties": {"id": 4118721037, "addr:street": "All Saints Lane", "camera:mount": "pole", "camera:type": "panning", "man_made": "surveillance", "operator": "Rother District Council", "operator:type": "government", "operator:wikidata": "Q73072720", "surveillance": "outdoor", "surveillance:type": "camera", "surveillance:zone": "town", "data_source": "planet_osm"}}, {"type": "Feature", "geometry": {"type": "Point", "coordinates": [0.4993508, 50.8432547]}, "properties": {"id": 4120993590, "addr:place": "Ravenside Retail & Leisure Park", "camera:mount": "pole", "camera:type": "dome", "man_made": "surveillance", "operator": "Land Securities", "surveillance": "outdoor", "surveillance:type": "camera", "surveillance:zone": "shop", "data_source": "planet_osm"}}, {"type": "Feature", "geometry": {"type": "Point", "coordinates": [0.4758819, 50.849715]}, "properties": {"id": 4198643695, "addr:place": "Bexhill Hospital, Holliers Hill", "camera:mount": "pole", "camera:type": "fixed", "man_made": "surveillance", "operator": "NHS", "surveillance": "outdoor", "surveillance:type": "camera", "surveillance:zone": "building", "data_source": "planet_osm"}}, {"type": "Feature", "geometry": {"type": "Point", "coordinates": [0.4616107, 50.8406365]}, "properties": {"id": 4415172230, "addr:place": "Tesco, Collington Mansions", "camera:mount": "wall", "camera:type": "dome", "man_made": "surveillance", "operator": "Tesco", "surveillance": "outdoor", "surveillance:type": "camera", "surveillance:zone": "shop", "data_source": "planet_osm"}}, {"type": "Feature", "geometry": {"type": "Point", "coordinates": [0.5124253, 50.8488897]}, "properties": {"id": 4844229524, "addr:place": "Carpark, Lewis Avenue", "camera:mount": "pole", "camera:type": "fixed", "man_made": "surveillance", "surveillance": "outdoor", "surveillance:type": "camera", "surveillance:zone": "parking", "data_source": "planet_osm"}}, {"type": "Feature", "geometry": {"type": "Point", "coordinates": [0.4344012, 50.8452337]}, "properties": {"id": 5555366527, "addr:place": "Little Common", "camera:mount": "pole", "camera:type": "dome", "man_made": "surveillance", "surveillance": "outdoor", "surveillance:type": "camera", "surveillance:zone": "town", "data_source": "planet_osm"}}, {"type": "Feature", "geometry": {"type": "Point", "coordinates": [0.5205686, 50.8484805]}, "properties": {"id": 6139754934, "addr:place": "Bridge Way, Bulverhythe", "camera:type": "dome", "check_date": "2022-07-05", "contact:webcam": "http://cam.vocschip-amsterdam.org/", "image": "http://213.123.192.190/axis-cgi/jpg/image.cgi", "man_made": "surveillance", "name": "Amsterdam Shipwreck Webcam", "surveillance": "webcam", "surveillance:type": "camera", "surveillance:zone": "beach", "data_source": "planet_osm"}}, {"type": "Feature", "geometry": {"type": "Point", "coordinates": [0.4810441, 50.8386187]}, "properties": {"id": 6139754935, "addr:place": "The Sackville, De La Warr Parade", "camera:direction": "150", "camera:type": "fixed", "contact:webcam": "https://www.discoverbexhill.com/bexhillwebcam.php", "image": "https://www.discoverbexhill.com/webcam/cam1.jpg", "level": "4", "man_made": "surveillance", "name": "Discover Bexhill Webcam", "operator": "Discover Bexhill", "surveillance": "webcam", "surveillance:type": "camera", "surveillance:zone": "beach", "data_source": "planet_osm"}}, {"type": "Feature", "geometry": {"type": "Point", "coordinates": [0.4769531, 50.8376251]}, "properties": {"id": 6139754936, "addr:place": "Bexhill Sailing Club, De La Warr Parade", "camera:direction": "170", "camera:type": "fixed", "contact:webcam": "https://bexhillsailing.club/webcam/", "image": "https://www.bexhillsailing.club/wp-content/uploads/2022/07/webcam-screenshot.png", "level": "1", "man_made": "surveillance", "name": "Bexhill Sailing Club Webcam", "operator": "Bexhill Sailing Club", "surveillance": "webcam", "surveillance:type": "camera", "surveillance:zone": "harbour", "data_source": "planet_osm"}}, {"type": "Feature", "geometry": {"type": "Point", "coordinates": [0.507555, 50.8447491]}, "properties": {"id": 6254415046, "camera:mount": "pole", "camera:type": "fixed", "man_made": "surveillance", "surveillance": "outdoor", "surveillance:type": "camera", "surveillance:zone": "traffic", "data_source": "planet_osm"}}], "networks": []}