{"type": "FeatureCollection", "features": [{"type": "Feature", "geometry": {"type": "Point", "coordinates": [18.1467152, 49.5989622]}, "properties": {"id": 355222271, "man_made": "surveillance", "data_source": "planet_osm"}}, {"type": "Feature", "geometry": {"type": "Point", "coordinates": [18.1472851, 49.5982306]}, "properties": {"id": 451801998, "man_made": "surveillance", "data_source": "planet_osm"}}, {"type": "Feature", "geometry": {"type": "Point", "coordinates": [18.1424804, 49.6002537]}, "properties": {"id": 451802044, "man_made": "surveillance", "data_source": "planet_osm"}}, {"type": "Feature", "geometry": {"type": "Point", "coordinates": [18.1458153, 49.598021]}, "properties": {"id": 451802088, "man_made": "surveillance", "data_source": "planet_osm"}}, {"type": "Feature", "geometry": {"type": "Point", "coordinates": [18.2123015, 49.5475163]}, "properties": {"id": 2487175293, "man_made": "surveillance", "name": "Oto\u010dn\u00e1 kamera (turning camera) 360`", "surveillance": "outdoor", "data_source": "planet_osm"}}, {"type": "Feature", "geometry": {"type": "Point", "coordinates": [18.2117945, 49.5471578]}, "properties": {"id": 2488286832, "man_made": "surveillance", "name": "Oto\u010dn\u00e1 kamera (turning camera) 360`", "surveillance": "outdoor", "data_source": "planet_osm"}}, {"type": "Feature", "geometry": {"type": "Point", "coordinates": [18.2151151, 49.5446657]}, "properties": {"id": 2489719164, "man_made": "surveillance", "name": "Jednosm\u011brn\u00e1 kamera (One direction camera)", "surveillance": "outdoor", "data_source": "planet_osm"}}, {"type": "Feature", "geometry": {"type": "Point", "coordinates": [18.2150829, 49.5444917]}, "properties": {"id": 2489719167, "man_made": "surveillance", "name": "Jednosm\u011brn\u00e1 kamera - IR podsv\u00edcen\u00ed (One direction camera - IR backlight)", "surveillance": "outdoor", "data_source": "planet_osm"}}, {"type": "Feature", "geometry": {"type": "Point", "coordinates": [18.2152197, 49.5446135]}, "properties": {"id": 2489719170, "man_made": "surveillance", "name": "Jednosm\u011brn\u00e1 kamera IR podsv\u00edcen\u00ed (One direction camera - IR backlight)", "surveillance": "public", "data_source": "planet_osm"}}, {"type": "Feature", "geometry": {"type": "Point", "coordinates": [18.2139242, 49.5454019]}, "properties": {"id": 2489719172, "man_made": "surveillance", "name": "Jednosm\u011brn\u00e1 kamera (One direction camera)", "surveillance": "public", "data_source": "planet_osm"}}, {"type": "Feature", "geometry": {"type": "Point", "coordinates": [18.214713, 49.545917]}, "properties": {"id": 2489719175, "man_made": "surveillance", "name": "Jednosm\u011brn\u00e1 kamera (One direction camera)", "surveillance": "public", "data_source": "planet_osm"}}, {"type": "Feature", "geometry": {"type": "Point", "coordinates": [18.2136506, 49.5457082]}, "properties": {"id": 2489719177, "man_made": "surveillance", "name": "Oto\u010dn\u00e1 kamera - Sokolovna (Rotate camera Sokol)", "surveillance": "outdoor", "data_source": "planet_osm"}}, {"type": "Feature", "geometry": {"type": "Point", "coordinates": [18.2152063, 49.5445561]}, "properties": {"id": 2489719179, "man_made": "surveillance", "name": "Jednosm\u011brn\u00e1 kamera - IR podsv\u00edcen\u00ed (One direction camera - IR backlight)", "surveillance": "outdoor", "data_source": "planet_osm"}}, {"type": "Feature", "geometry": {"type": "Point", "coordinates": [18.214761, 49.5458194]}, "properties": {"id": 2489719182, "man_made": "surveillance", "name": "Jednosm\u011brn\u00e1 kamera (One direction camera)", "surveillance": "outdoor", "data_source": "planet_osm"}}, {"type": "Feature", "geometry": {"type": "Point", "coordinates": [18.2131008, 49.5460685]}, "properties": {"id": 2489719184, "man_made": "surveillance", "name": "Jednosm\u011brn\u00e1 kamera - Policie \u010cR (One direction camera - CZ Police)", "surveillance": "outdoor", "data_source": "planet_osm"}}, {"type": "Feature", "geometry": {"type": "Point", "coordinates": [18.2136077, 49.5466967]}, "properties": {"id": 2497622149, "man_made": "surveillance", "name": "Oto\u010dn\u00e1 kamera p\u0159ed Tescem a Knihkupectv\u00edm (Rotating camera before Tesco and bookshop) 360\u00b0", "surveillance": "outdoor", "data_source": "planet_osm"}}, {"type": "Feature", "geometry": {"type": "Point", "coordinates": [18.214002, 49.541385]}, "properties": {"id": 2508645597, "man_made": "surveillance", "name": "Static camera on the lamp", "surveillance": "public", "data_source": "planet_osm"}}, {"type": "Feature", "geometry": {"type": "Point", "coordinates": [18.2177705, 49.5449285]}, "properties": {"id": 2520012138, "designation": "360\u00b0 rotate camera - 360\u00b0 oto\u010dn\u00e1 kamera", "man_made": "surveillance", "surveillance": "public", "data_source": "planet_osm"}}, {"type": "Feature", "geometry": {"type": "Point", "coordinates": [18.2128459, 49.5463208]}, "properties": {"id": 2531008027, "designation": "Minicamera placed in pharmacy that looks out through glass", "man_made": "surveillance", "name": "One way minicamera", "surveillance": "public", "data_source": "planet_osm"}}, {"type": "Feature", "geometry": {"type": "Point", "coordinates": [18.1697965, 49.5639538]}, "properties": {"id": 2549299493, "man_made": "surveillance", "name": "Checking of speed (with camera) from southwest direction", "surveillance": "public", "data_source": "planet_osm"}}, {"type": "Feature", "geometry": {"type": "Point", "coordinates": [18.1910128, 49.586001]}, "properties": {"id": 2549303235, "man_made": "surveillance", "name": "Checking of speed on the bridge, from southwest direction", "surveillance": "public", "data_source": "planet_osm"}}, {"type": "Feature", "geometry": {"type": "Point", "coordinates": [18.2166762, 49.5564587]}, "properties": {"id": 2550911857, "man_made": "surveillance", "name": "One way camera checks parking", "surveillance": "public", "data_source": "planet_osm"}}, {"type": "Feature", "geometry": {"type": "Point", "coordinates": [18.2165689, 49.5564587]}, "properties": {"id": 2550911858, "man_made": "surveillance", "name": "One way camera checks cemetery", "surveillance": "public", "data_source": "planet_osm"}}, {"type": "Feature", "geometry": {"type": "Point", "coordinates": [18.147975, 49.595023]}, "properties": {"id": 8285749717, "man_made": "surveillance", "data_source": "planet_osm"}}], "networks": []}