{"type": "FeatureCollection", "features": [{"type": "Feature", "geometry": {"type": "Point", "coordinates": [13.139112, 53.1718073]}, "properties": {"id": 2156329578, "addr:city": "F\u00fcrstenberg/Havel", "addr:country": "DE", "addr:housenumber": "1-4", "addr:postcode": "16798", "addr:street": "Hans-G\u00fcnter-Bock-Stra\u00dfe", "brand": "TEDi", "brand:wikidata": "Q1364603", "brand:wikipedia": "de:TEDi", "contact:facebook": "https://www.facebook.com/TEDi.Deutschland/", "contact:instagram": "https://www.instagram.com/tedi.deutschland/", "contact:website": "https://www.tedi.com/", "man_made": "surveillance", "name": "TEDi", "opening_hours": "Mo-Fr 09:00-19:00; Sa 09:00-16:00; PH,Su off", "operator": "TEDI Gmbh & Co. KG", "operator:type": "business", "operator:wikidata": "Q1364603", "operator:wikipedia": "de:TEDi", "shop": "variety_store", "surveillance": "indoor", "surveillance:type": "camera", "surveillance:zone": "shop", "wheelchair": "yes", "data_source": "planet_osm"}}, {"type": "Feature", "geometry": {"type": "Point", "coordinates": [13.2399922, 53.1367092]}, "properties": {"id": 5081327328, "camera:mount": "pole", "camera:type": "dome", "check_date": "2025-08-17", "man_made": "surveillance", "surveillance": "outdoor", "surveillance:type": "camera", "surveillance:zone": "traffic", "data_source": "planet_osm"}}, {"type": "Feature", "geometry": {"type": "Point", "coordinates": [13.2400127, 53.13622]}, "properties": {"id": 5081327329, "camera:mount": "pole", "camera:type": "dome", "check_date": "2023-08-10", "man_made": "surveillance", "surveillance": "outdoor", "surveillance:type": "camera", "surveillance:zone": "traffic", "data_source": "planet_osm"}}, {"type": "Feature", "geometry": {"type": "Point", "coordinates": [13.2954311, 53.1325728]}, "properties": {"id": 5081327330, "camera:mount": "pole", "camera:type": "dome", "check_date": "2025-08-18", "man_made": "surveillance", "surveillance": "outdoor", "surveillance:type": "camera", "surveillance:zone": "traffic", "data_source": "planet_osm"}}, {"type": "Feature", "geometry": {"type": "Point", "coordinates": [13.2956577, 53.132156]}, "properties": {"id": 5081327331, "camera:mount": "pole", "camera:type": "dome", "check_date": "2025-08-18", "man_made": "surveillance", "surveillance": "outdoor", "surveillance:type": "camera", "surveillance:zone": "traffic", "data_source": "planet_osm"}}, {"type": "Feature", "geometry": {"type": "Point", "coordinates": [13.2399912, 53.1357268]}, "properties": {"id": 5081396528, "camera:mount": "pole", "camera:type": "dome", "check_date": "2023-08-10", "man_made": "surveillance", "surveillance": "outdoor", "surveillance:type": "camera", "surveillance:zone": "traffic", "data_source": "planet_osm"}}, {"type": "Feature", "geometry": {"type": "Point", "coordinates": [13.230456, 53.1774654]}, "properties": {"id": 5081396535, "camera:mount": "pole", "camera:type": "dome", "check_date": "2021-10-03", "man_made": "surveillance", "surveillance": "outdoor", "surveillance:type": "camera", "surveillance:zone": "traffic", "data_source": "planet_osm"}}, {"type": "Feature", "geometry": {"type": "Point", "coordinates": [13.229941, 53.1772492]}, "properties": {"id": 5081396536, "camera:mount": "pole", "camera:type": "dome", "check_date": "2021-10-03", "man_made": "surveillance", "surveillance": "outdoor", "surveillance:type": "camera", "surveillance:zone": "traffic", "data_source": "planet_osm"}}, {"type": "Feature", "geometry": {"type": "Point", "coordinates": [13.1450815, 53.1813169]}, "properties": {"id": 5088392792, "camera:mount": "pole", "camera:type": "dome", "man_made": "surveillance", "surveillance": "outdoor", "surveillance:type": "camera", "surveillance:zone": "traffic", "data_source": "planet_osm"}}, {"type": "Feature", "geometry": {"type": "Point", "coordinates": [13.1458498, 53.1812654]}, "properties": {"id": 5088392793, "camera:mount": "pole", "camera:type": "dome", "man_made": "surveillance", "surveillance": "outdoor", "surveillance:type": "camera", "surveillance:zone": "traffic", "data_source": "planet_osm"}}, {"type": "Feature", "geometry": {"type": "Point", "coordinates": [13.2287857, 53.1761493]}, "properties": {"id": 7878676678, "camera:mount": "pole", "camera:type": "dome", "man_made": "surveillance", "surveillance": "outdoor", "surveillance:type": "camera", "surveillance:zone": "traffic", "data_source": "planet_osm"}}], "networks": []}