{"type": "FeatureCollection", "features": [{"type": "Feature", "geometry": {"type": "Point", "coordinates": [7.2454652, 44.8138404]}, "properties": {"id": 6388100081, "camera:mount": "pole", "camera:type": "dome", "man_made": "surveillance", "surveillance": "camera", "surveillance:type": "camera", "surveillance:zone": "traffic", "data_source": "planet_osm"}}, {"type": "Feature", "geometry": {"type": "Point", "coordinates": [7.2369814, 44.8178684]}, "properties": {"id": 6388103584, "camera:direction": "300", "camera:mount": "pole", "camera:type": "fixed", "man_made": "surveillance", "surveillance": "traffic", "surveillance:type": "camera", "surveillance:zone": "traffic", "data_source": "planet_osm"}}, {"type": "Feature", "geometry": {"type": "Point", "coordinates": [7.2370377, 44.8178475]}, "properties": {"id": 6388106496, "camera:direction": "120", "camera:mount": "pole", "camera:type": "fixed", "man_made": "surveillance", "surveillance": "traffic", "surveillance:type": "camera", "surveillance:zone": "traffic", "data_source": "planet_osm"}}, {"type": "Feature", "geometry": {"type": "Point", "coordinates": [7.0391461, 44.7603869]}, "properties": {"id": 6410382671, "addr:city": "Bobbio Pellice", "contact:webcam": "https://fr.webcams.travel/webcam/1234345255-Weather-Conca-del-Pra-%28Val-Pellice%29-Bobbio-Pellice", "image": "https://images.webcams.travel/thumbnail/1234345255.jpg", "man_made": "surveillance", "name": "Bobbio Pellice: Conca del Pra (Val Pellice)", "surveillance": "public", "surveillance:type": "camera", "surveillance:zone": "area", "data_source": "planet_osm"}}, {"type": "Feature", "geometry": {"type": "Point", "coordinates": [7.2200084, 44.8198899]}, "properties": {"id": 6410382677, "addr:city": "Torre Pellice", "camera:direction": "290", "camera:mount": "roof", "camera:type": "fixed", "contact:webcam": "https://fr.webcams.travel/webcam/1515612439-torre-pellice-west-monte-vandalino", "ele": "530", "image": "https://images.webcams.travel/thumbnail/1515612439.jpg", "man_made": "surveillance", "name": "Torre Pellice \u203a West: Monte Vandalino", "surveillance": "public", "surveillance:type": "camera", "surveillance:zone": "area", "data_source": "planet_osm"}}, {"type": "Feature", "geometry": {"type": "Point", "coordinates": [7.3732433, 44.7806172]}, "properties": {"id": 6410383585, "contact:webcam": "https://fr.webcams.travel/webcam/1272905364-Weather-Vista-di-Cavour-dalla-Vetta-della-Rocca-Cavour", "image": "https://images.webcams.travel/thumbnail/1272905364.jpg", "man_made": "surveillance", "name": "Cavour: Vista dalla vetta della Rocca", "surveillance": "public", "surveillance:type": "camera", "surveillance:zone": "area", "data_source": "planet_osm"}}, {"type": "Feature", "geometry": {"type": "Point", "coordinates": [7.1954281, 44.6994634]}, "properties": {"id": 6410383587, "addr:city": "Ostana", "contact:webcam": "https://fr.webcams.travel/webcam/1387748286-Weather-agriturismo-%22A-Nostro-Mizoun%22-Ostana", "image": "https://images.webcams.travel/thumbnail/1387748286.jpg", "man_made": "surveillance", "name": "Ostana \u203a North-West: agriturismo \"A Nostro Mizoun\"", "surveillance": "public", "surveillance:type": "camera", "surveillance:zone": "area", "data_source": "planet_osm"}}], "networks": []}