{"type": "FeatureCollection", "features": [{"type": "Feature", "geometry": {"type": "Point", "coordinates": [9.9414477, 47.1351443]}, "properties": {"id": 4359092600, "camera:direction": "292", "camera:mount": "pole", "camera:type": "fixed", "check_date": "2023-04-17", "man_made": "surveillance", "surveillance": "outdoor", "surveillance:type": "camera", "surveillance:zone": "traffic", "data_source": "planet_osm"}}, {"type": "Feature", "geometry": {"type": "Point", "coordinates": [9.9357885, 47.1367649]}, "properties": {"id": 4359092601, "camera:direction": "112", "camera:mount": "pole", "camera:type": "fixed", "man_made": "surveillance", "surveillance": "outdoor", "surveillance:type": "camera", "surveillance:zone": "traffic", "data_source": "planet_osm"}}, {"type": "Feature", "geometry": {"type": "Point", "coordinates": [9.8552206, 47.1417765]}, "properties": {"id": 4969187518, "camera:type": "fixed", "check_date": "2023-05-01", "contact:webcam": "http://www.asfinag.at/verkehr/webcams/webcam/?id=VK_S16_060,507~F1-I", "description": "km 60,51", "man_made": "surveillance", "name": "Livecam S16 Bings, Blickrichtung Bregenz", "surveillance": "public", "surveillance:type": "camera", "surveillance:zone": "traffic", "data_source": "planet_osm"}}, {"type": "Feature", "geometry": {"type": "Point", "coordinates": [9.85531, 47.1416894]}, "properties": {"id": 4969187519, "camera:type": "fixed", "check_date": "2023-05-01", "contact:webcam": "http://www.asfinag.at/verkehr/webcams/webcam/?id=VK_S16_060,499~F2-I", "description": "km 60,5", "man_made": "surveillance", "name": "Livecam S16 Bings, Blickrichtung Innsbruck", "surveillance": "public", "surveillance:type": "camera", "surveillance:zone": "traffic", "data_source": "planet_osm"}}, {"type": "Feature", "geometry": {"type": "Point", "coordinates": [10.1830675, 47.1617236]}, "properties": {"id": 5311914525, "camera:mount": "pole", "camera:type": "panning", "contact:webcam": "http://skiarlberg.at/de/regionen/skigebiet/lech-oberlech-zuers/livecams", "man_made": "surveillance", "name": "Trittkopf Webcam", "surveillance": "webcam", "surveillance:type": "camera", "surveillance:zone": "station", "data_source": "planet_osm"}}, {"type": "Feature", "geometry": {"type": "Point", "coordinates": [10.1639273, 47.1691401]}, "properties": {"id": 5311914526, "camera:type": "fixed", "contact:webcam": "https://www.arlberghaus.com/de-DE/snow-cam", "man_made": "surveillance", "name": "Snow Cam", "surveillance": "webcam", "surveillance:type": "camera", "surveillance:zone": "area", "data_source": "planet_osm"}}, {"type": "Feature", "geometry": {"type": "Point", "coordinates": [10.1640003, 47.1691758]}, "properties": {"id": 5311914527, "camera:type": "fixed", "contact:webcam": "https://www.arlberghaus.com/de-DE/skiurlaub-am-arlberg/webcam", "man_made": "surveillance", "name": "Z\u00fcrs Webcam", "surveillance": "webcam", "surveillance:type": "camera", "surveillance:zone": "area", "data_source": "planet_osm"}}, {"type": "Feature", "geometry": {"type": "Point", "coordinates": [10.1622348, 47.1736071]}, "properties": {"id": 5311914528, "camera:type": "fixed", "contact:webcam": "http://www.zuerserhof.at/de/webcam", "man_made": "surveillance", "surveillance": "webcam", "surveillance:type": "camera", "surveillance:zone": "town", "data_source": "planet_osm"}}, {"type": "Feature", "geometry": {"type": "Point", "coordinates": [10.1425593, 47.1754398]}, "properties": {"id": 5311914529, "camera:type": "panning", "contact:webcam": "http://skiarlberg.at/de/regionen/skigebiet/lech-oberlech-zuers/livecams", "man_made": "surveillance", "name": "Webcam Seekopf", "surveillance": "webcam", "surveillance:type": "camera", "surveillance:zone": "area", "data_source": "planet_osm"}}, {"type": "Feature", "geometry": {"type": "Point", "coordinates": [10.1357801, 47.165166]}, "properties": {"id": 5311914530, "camera:mount": "pole", "camera:type": "panning", "contact:webcam": "http://www.vorarlberg-cam.at/wetter/zuers-muggengrat-livestream.html", "man_made": "surveillance", "name": "Webcam Muggengrat", "surveillance": "webcam", "surveillance:type": "camera", "surveillance:zone": "area", "data_source": "planet_osm"}}, {"type": "Feature", "geometry": {"type": "Point", "coordinates": [10.1433299, 47.1749514]}, "properties": {"id": 5311914531, "camera:type": "panning", "contact:webcam": "http://www.vorarlberg-cam.at/wetter/zuers-zuersersee-livestream.html", "man_made": "surveillance", "name": "Webcam Z\u00fcrsersee", "surveillance": "webcam", "surveillance:type": "camera", "surveillance:zone": "area", "data_source": "planet_osm"}}, {"type": "Feature", "geometry": {"type": "Point", "coordinates": [10.1213522, 47.1768471]}, "properties": {"id": 5311914532, "camera:mount": "pole", "camera:type": "panning", "contact:webcam": "http://www.vorarlberg-cam.at/wetter/zuers-madloch-livestream.html", "description": "Livestream webcam at the mountain station of the Madlochbahn in Z\u00fcrs am Arlberg", "description:de": "Livestream Webcam an der Bergstation der Madlochbahn in Z\u00fcrs am Arlberg", "man_made": "surveillance", "name": "Webcam Madloch", "surveillance": "webcam", "surveillance:type": "camera", "surveillance:zone": "area", "data_source": "planet_osm"}}, {"type": "Feature", "geometry": {"type": "Point", "coordinates": [10.1628945, 47.1726297]}, "properties": {"id": 5311914533, "camera:mount": "roof", "camera:type": "panning", "contact:webcam": "http://www.vorarlberg-cam.at/wetter/zuers-hexenboden-livestream.html", "man_made": "surveillance", "name": "Webcam Hexenboden", "surveillance": "webcam", "surveillance:type": "camera", "surveillance:zone": "area", "data_source": "planet_osm"}}, {"type": "Feature", "geometry": {"type": "Point", "coordinates": [10.116377, 47.1303486]}, "properties": {"id": 6888442944, "description": "\u00dcberpr\u00fcft LKW auf \u00dcberhitzung", "man_made": "surveillance", "name": "Thermoscanner", "surveillance": "traffic", "surveillance:type": "camera", "surveillance:zone": "traffic", "data_source": "planet_osm"}}, {"type": "Feature", "geometry": {"type": "Point", "coordinates": [10.0620036, 47.1296604]}, "properties": {"id": 8336103866, "man_made": "surveillance", "surveillance:type": "camera", "data_source": "planet_osm"}}], "networks": []}