{"type": "FeatureCollection", "features": [{"type": "Feature", "geometry": {"type": "Point", "coordinates": [12.6805017, 45.7925914]}, "properties": {"id": 2036990123, "camera:mount": "pole", "camera:type": "dome", "man_made": "surveillance", "name": "Cam3", "surveillance": "public", "surveillance:type": "camera", "data_source": "planet_osm"}}, {"type": "Feature", "geometry": {"type": "Point", "coordinates": [12.6792967, 45.792995]}, "properties": {"id": 2036990899, "man_made": "surveillance", "name": "cam4", "surveillance": "public", "data_source": "planet_osm"}}, {"type": "Feature", "geometry": {"type": "Point", "coordinates": [12.6802415, 45.7930717]}, "properties": {"id": 2036990960, "man_made": "surveillance", "name": "Cam5", "surveillance": "public", "data_source": "planet_osm"}}, {"type": "Feature", "geometry": {"type": "Point", "coordinates": [12.8460141, 45.7556161]}, "properties": {"id": 2075150979, "camera:type": "dome", "man_made": "surveillance", "data_source": "planet_osm"}}, {"type": "Feature", "geometry": {"type": "Point", "coordinates": [12.682607, 45.7921933]}, "properties": {"id": 2284841330, "camera:mount": "pole", "camera:type": "dome", "highway": "street_lamp", "man_made": "surveillance", "name": "Cam1", "surveillance": "public", "surveillance:type": "camera", "data_source": "planet_osm"}}, {"type": "Feature", "geometry": {"type": "Point", "coordinates": [12.6829185, 45.7942286]}, "properties": {"id": 2284841332, "camera:mount": "pole", "camera:type": "dome", "highway": "street_lamp", "man_made": "surveillance", "name": "Cam2", "surveillance": "public", "surveillance:type": "camera", "data_source": "planet_osm"}}, {"type": "Feature", "geometry": {"type": "Point", "coordinates": [12.6798645, 45.7926868]}, "properties": {"id": 2284841334, "highway": "street_lamp", "man_made": "surveillance", "name": "Cam6 - Cam7", "surveillance": "public", "data_source": "planet_osm"}}, {"type": "Feature", "geometry": {"type": "Point", "coordinates": [12.6931573, 45.792285]}, "properties": {"id": 2284960000, "man_made": "surveillance", "name": "Fix_autovelox", "data_source": "planet_osm"}}, {"type": "Feature", "geometry": {"type": "Point", "coordinates": [12.691875, 45.796509]}, "properties": {"id": 2284960002, "man_made": "surveillance", "name": "Mobile_autovelox", "data_source": "planet_osm"}}, {"type": "Feature", "geometry": {"type": "Point", "coordinates": [12.694437, 45.8187063]}, "properties": {"id": 2284988636, "camera:mount": "pole", "camera:type": "dome", "highway": "street_lamp", "man_made": "surveillance", "surveillance:type": "camera", "data_source": "planet_osm"}}, {"type": "Feature", "geometry": {"type": "Point", "coordinates": [12.883829, 45.5974826]}, "properties": {"id": 7816719776, "camera:direction": "235", "camera:type": "fixed", "man_made": "surveillance", "name": "Webcam Hotel Marco Polo, West beach", "operator": "Hotel Marco Polo", "surveillance": "public", "surveillance:type": "camera", "website": "https://www.caorle.it/de/stadtfuehrer/live-webcam/134-tedesco/live-webcam/626-webcam-weststrand-hotel-marco-polo", "data_source": "planet_osm"}}], "networks": []}