{"type": "FeatureCollection", "features": [{"type": "Feature", "geometry": {"type": "Point", "coordinates": [7.7503784, 48.5811282]}, "properties": {"id": 376765369, "camera:type": "dome", "description": "http://crep.strasbourg.free.fr/spip.php?article117", "man_made": "surveillance", "source": "survey", "surveillance": "public", "data_source": "planet_osm"}}, {"type": "Feature", "geometry": {"type": "Point", "coordinates": [7.9264107, 48.6744668]}, "properties": {"id": 379673617, "description": "Paketshop Kamera", "man_made": "surveillance", "data_source": "planet_osm"}}, {"type": "Feature", "geometry": {"type": "Point", "coordinates": [7.7641533, 48.5706539]}, "properties": {"id": 410721447, "camera:type": "fixed", "man_made": "surveillance", "source": "cadastre-dgi-fr source : Direction G\u00e9n\u00e9rale des Imp\u00f4ts - Cadastre;mise \u00e0 jour : 2009", "surveillance:type": "camera", "data_source": "planet_osm"}}, {"type": "Feature", "geometry": {"type": "Point", "coordinates": [7.7521469, 48.5848465]}, "properties": {"id": 410721496, "man_made": "surveillance", "source": "cadastre-dgi-fr source : Direction G\u00e9n\u00e9rale des Imp\u00f4ts - Cadastre ; mise \u00e0 jour : 2009", "data_source": "planet_osm"}}, {"type": "Feature", "geometry": {"type": "Point", "coordinates": [7.7682265, 48.581144]}, "properties": {"id": 411894787, "man_made": "surveillance", "source": "cadastre-dgi-fr source : Direction G\u00e9n\u00e9rale des Imp\u00f4ts - Cadastre ; mise \u00e0 jour : 2009", "data_source": "planet_osm"}}, {"type": "Feature", "geometry": {"type": "Point", "coordinates": [7.7631803, 48.5694658]}, "properties": {"id": 412253615, "camera:mount": "pole", "camera:type": "dome", "check_date": "2025-09-18", "man_made": "surveillance", "source": "cadastre-dgi-fr source : Direction G\u00e9n\u00e9rale des Imp\u00f4ts - Cadastre. Mise \u00e0 jour : 2009", "surveillance": "public", "surveillance:type": "camera", "surveillance:zone": "town", "data_source": "planet_osm"}}, {"type": "Feature", "geometry": {"type": "Point", "coordinates": [7.7526766, 48.5827368]}, "properties": {"id": 412253734, "camera:mount": "wall", "camera:type": "dome", "man_made": "surveillance", "source": "cadastre-dgi-fr source : Direction G\u00e9n\u00e9rale des Imp\u00f4ts - Cadastre ; mise \u00e0 jour : 2009", "surveillance": "public", "surveillance:type": "camera", "data_source": "planet_osm"}}, {"type": "Feature", "geometry": {"type": "Point", "coordinates": [7.7528382, 48.5909759]}, "properties": {"id": 420799179, "camera:mount": "wall", "camera:type": "dome", "check_date": "2024-03-26", "man_made": "surveillance", "surveillance": "outdoor", "surveillance:type": "camera", "surveillance:zone": "street", "data_source": "planet_osm"}}, {"type": "Feature", "geometry": {"type": "Point", "coordinates": [7.7525186, 48.5909385]}, "properties": {"id": 420799278, "camera:mount": "wall", "camera:type": "dome", "check_date": "2024-03-26", "man_made": "surveillance", "surveillance": "outdoor", "surveillance:type": "camera", "surveillance:zone": "street", "data_source": "planet_osm"}}, {"type": "Feature", "geometry": {"type": "Point", "coordinates": [7.7547956, 48.5830718]}, "properties": {"id": 475378492, "camera:mount": "wall", "camera:type": "dome", "man_made": "surveillance", "surveillance": "outdoor", "surveillance:type": "camera", "data_source": "planet_osm"}}, {"type": "Feature", "geometry": {"type": "Point", "coordinates": [7.7524767, 48.5908062]}, "properties": {"id": 482205241, "camera:direction": "-60", "camera:mount": "wall", "camera:type": "fixed", "check_date": "2024-03-26", "man_made": "surveillance", "surveillance": "outdoor", "surveillance:type": "camera", "surveillance:zone": "street", "data_source": "planet_osm"}}, {"type": "Feature", "geometry": {"type": "Point", "coordinates": [7.7397306, 48.5831762]}, "properties": {"id": 482666331, "camera:mount": "wall", "camera:type": "dome", "man_made": "surveillance", "surveillance": "public", "surveillance:type": "camera", "data_source": "planet_osm"}}, {"type": "Feature", "geometry": {"type": "Point", "coordinates": [7.7351525, 48.5647408]}, "properties": {"id": 550398400, "camera:type": "dome", "man_made": "surveillance", "surveillance:type": "camera", "data_source": "planet_osm"}}, {"type": "Feature", "geometry": {"type": "Point", "coordinates": [7.739507, 48.5432576]}, "properties": {"id": 605051501, "camera:direction": "280", "camera:type": "dome", "check_date": "2025-04-07", "man_made": "surveillance", "surveillance": "outdoor", "surveillance:type": "camera", "data_source": "planet_osm"}}, {"type": "Feature", "geometry": {"type": "Point", "coordinates": [7.9510799, 48.4751299]}, "properties": {"id": 704808828, "building": "yes", "description": "Guller", "man_made": "surveillance", "surveillance": "outdoor", "data_source": "planet_osm"}}, {"type": "Feature", "geometry": {"type": "Point", "coordinates": [7.9380953, 48.4743895]}, "properties": {"id": 719651554, "man_made": "surveillance", "data_source": "planet_osm"}}, {"type": "Feature", "geometry": {"type": "Point", "coordinates": [7.9514514, 48.4735205]}, "properties": {"id": 719651738, "man_made": "surveillance", "surveillance": "indoor", "data_source": "planet_osm"}}, {"type": "Feature", "geometry": {"type": "Point", "coordinates": [7.7379432, 48.6110882]}, "properties": {"id": 1005015907, "camera:type": "dome", "man_made": "surveillance", "name": "Angle des rues d'Erstein et S\u00e9bastien Brandt (Schiltigheim)", "source": "http://crep.strasbourg.free.fr/spip.php?article117", "surveillance": "public", "data_source": "planet_osm"}}, {"type": "Feature", "geometry": {"type": "Point", "coordinates": [7.7416, 48.58778]}, "properties": {"id": 1005015909, "camera:type": "dome", "man_made": "surveillance", "name": "Rue de S\u00e9bastopol (Gare)", "source": "http://crep.strasbourg.free.fr/spip.php?article117", "surveillance": "public", "data_source": "planet_osm"}}, {"type": "Feature", "geometry": {"type": "Point", "coordinates": [7.77521, 48.54168]}, "properties": {"id": 1005015910, "camera:type": "dome", "man_made": "surveillance", "name": "Angle de l'all\u00e9e des D\u00e9port\u00e9s et de la rue Crabbe (Neuhof)", "source": "http://crep.strasbourg.free.fr/spip.php?article117", "surveillance": "public", "data_source": "planet_osm"}}, {"type": "Feature", "geometry": {"type": "Point", "coordinates": [7.75683, 48.60314]}, "properties": {"id": 1005015912, "camera:mount": "pole", "camera:type": "dome", "height": "5", "man_made": "surveillance", "name": "Avenue Mend\u00e8s-France / Rue du Tribunal (Schiltigheim)", "source": "http://crep.strasbourg.free.fr/spip.php?article117", "surveillance": "public", "surveillance:type": "camera", "data_source": "planet_osm"}}, {"type": "Feature", "geometry": {"type": "Point", "coordinates": [7.76634, 48.55443]}, "properties": {"id": 1005015915, "camera:type": "dome", "man_made": "surveillance", "name": "Angle de la route du Neuhof et de la rue des Canonniers (Neuhof)", "source": "http://crep.strasbourg.free.fr/spip.php?article117", "surveillance": "public", "data_source": "planet_osm"}}, {"type": "Feature", "geometry": {"type": "Point", "coordinates": [7.77739, 48.6147]}, "properties": {"id": 1005015917, "camera:type": "dome", "man_made": "surveillance", "name": "Angle des rues Hechner et de la Thur (Cit\u00e9 de l'Ill)", "source": "http://crep.strasbourg.free.fr/spip.php?article117", "surveillance": "public", "data_source": "planet_osm"}}, {"type": "Feature", "geometry": {"type": "Point", "coordinates": [7.7377043, 48.5744156]}, "properties": {"id": 1005015919, "camera:mount": "pole", "camera:type": "panning", "man_made": "surveillance", "note": "http://crep.strasbourg.free.fr/spip.php?article117 Angle du quai Louis Pasteur et du pont du Heiritz (Centre)", "surveillance": "public", "surveillance:type": "camera", "data_source": "planet_osm"}}, {"type": "Feature", "geometry": {"type": "Point", "coordinates": [7.7535589, 48.5750823]}, "properties": {"id": 1005015920, "camera:mount": "street_lamp", "camera:type": "dome", "man_made": "surveillance", "name": "Pont de la Bourse (Neudorf)", "source": "http://crep.strasbourg.free.fr/spip.php?article117", "surveillance": "public", "surveillance:type": "camera", "surveillance:zone": "town", "data_source": "planet_osm"}}, {"type": "Feature", "geometry": {"type": "Point", "coordinates": [7.77399, 48.61413]}, "properties": {"id": 1005015922, "camera:type": "dome", "man_made": "surveillance", "name": "Parking des environs des rues de la Doller et de la Fecht (Cit\u00e9 de l'Ill)", "source": "http://crep.strasbourg.free.fr/spip.php?article117", "surveillance": "public", "data_source": "planet_osm"}}, {"type": "Feature", "geometry": {"type": "Point", "coordinates": [7.75197, 48.58554]}, "properties": {"id": 1005015924, "camera:type": "dome", "man_made": "surveillance", "name": "Place Broglie / Op\u00e9ra (Centre)", "source": "http://crep.strasbourg.free.fr/spip.php?article117", "surveillance": "public", "data_source": "planet_osm"}}, {"type": "Feature", "geometry": {"type": "Point", "coordinates": [7.75187, 48.57396]}, "properties": {"id": 1005015925, "camera:type": "dome", "man_made": "surveillance", "name": "Centre administratif / entr\u00e9e arri\u00e8re du parking (Neudorf)", "source": "http://crep.strasbourg.free.fr/spip.php?article117", "surveillance": "public", "data_source": "planet_osm"}}, {"type": "Feature", "geometry": {"type": "Point", "coordinates": [7.7768134, 48.5969209]}, "properties": {"id": 1005015927, "camera:type": "dome", "check_date": "2025-10-10", "ele": "5", "man_made": "surveillance", "source": "http://crep.strasbourg.free.fr/spip.php?article117", "surveillance": "public", "surveillance:type": "camera", "surveillance:zone": "town", "data_source": "planet_osm"}}, {"type": "Feature", "geometry": {"type": "Point", "coordinates": [7.7481268, 48.5829833]}, "properties": {"id": 1005015929, "camera:type": "dome", "man_made": "surveillance", "name": "Place du Temple Neuf (Centre)", "source": "http://crep.strasbourg.free.fr/spip.php?article117", "surveillance": "public", "data_source": "planet_osm"}}, {"type": "Feature", "geometry": {"type": "Point", "coordinates": [7.7590332, 48.5842229]}, "properties": {"id": 1005015931, "camera:type": "dome", "fixme": "Position incorrecte", "man_made": "surveillance", "name": "Boulevard de la Victoire (Krutenau)", "source": "http://crep.strasbourg.free.fr/spip.php?article117", "surveillance": "public", "data_source": "planet_osm"}}, {"type": "Feature", "geometry": {"type": "Point", "coordinates": [7.75946, 48.59804]}, "properties": {"id": 1005015934, "camera:type": "dome", "man_made": "surveillance", "name": "Palais de la musique et des congr\u00e8s / Parking (Wacken)", "source": "http://crep.strasbourg.free.fr/spip.php?article117", "surveillance": "public", "data_source": "planet_osm"}}, {"type": "Feature", "geometry": {"type": "Point", "coordinates": [7.7524824, 48.5815357]}, "properties": {"id": 1005015937, "camera:mount": "pole", "camera:type": "dome", "description": "http://crep.strasbourg.free.fr/spip.php?article117", "man_made": "surveillance", "source": "survey", "surveillance": "public", "surveillance:type": "camera", "data_source": "planet_osm"}}, {"type": "Feature", "geometry": {"type": "Point", "coordinates": [7.77923, 48.58049]}, "properties": {"id": 1005015940, "camera:type": "dome", "man_made": "surveillance", "name": "Angle du boulevard d'Anvers et de l'avenue de la For\u00eat Noire (Orangerie-Quinze)", "source": "http://crep.strasbourg.free.fr/spip.php?article117", "surveillance": "public", "data_source": "planet_osm"}}, {"type": "Feature", "geometry": {"type": "Point", "coordinates": [7.74844, 48.58154]}, "properties": {"id": 1005015942, "camera:type": "dome", "man_made": "surveillance", "name": "Place Gutenberg (Centre)", "name:de": "Gutenbergplatz (Zentrum)", "source": "http://crep.strasbourg.free.fr/spip.php?article117", "surveillance": "public", "data_source": "planet_osm"}}, {"type": "Feature", "geometry": {"type": "Point", "coordinates": [7.7344783, 48.5781419]}, "properties": {"id": 1005015943, "camera:type": "dome", "man_made": "surveillance", "name": "Rue de Molsheim / Tram Mus\u00e9e d'art moderne (Gare)", "source": "http://crep.strasbourg.free.fr/spip.php?article117", "surveillance": "public", "surveillance:type": "camera", "surveillance:zone": "town", "data_source": "planet_osm"}}, {"type": "Feature", "geometry": {"type": "Point", "coordinates": [7.75151, 48.56136]}, "properties": {"id": 1005015944, "camera:type": "dome", "man_made": "surveillance", "name": "Angle de l'avenue de Colmar et de la route de la F\u00e9d\u00e9ration (Meinau)", "source": "http://crep.strasbourg.free.fr/spip.php?article117", "surveillance": "public", "data_source": "planet_osm"}}, {"type": "Feature", "geometry": {"type": "Point", "coordinates": [7.7700751, 48.5925858]}, "properties": {"id": 1005015945, "camera:type": "dome", "man_made": "surveillance", "name": "Angle de l'all\u00e9e Spach et de l'avenue de l'Europe (Orangerie-Quinze)", "source": "http://crep.strasbourg.free.fr/spip.php?article117", "surveillance": "public", "data_source": "planet_osm"}}, {"type": "Feature", "geometry": {"type": "Point", "coordinates": [7.76921, 48.62073]}, "properties": {"id": 1005015946, "camera:type": "panning", "man_made": "surveillance", "name": "Rue du Marais / Supermarch\u00e9 le Ried (Hoenheim)", "source": "http://crep.strasbourg.free.fr/spip.php?article117", "surveillance": "public", "data_source": "planet_osm"}}, {"type": "Feature", "geometry": {"type": "Point", "coordinates": [7.743547, 48.5825942]}, "properties": {"id": 1005015947, "camera:mount": "building", "camera:type": "dome", "man_made": "surveillance", "name": "Angle des rues du 22 Novembre et du Foss\u00e9 des Tanneurs (Centre)", "source": "http://crep.strasbourg.free.fr/spip.php?article117", "surveillance": "public", "surveillance:type": "camera", "surveillance:zone": "town", "data_source": "planet_osm"}}, {"type": "Feature", "geometry": {"type": "Point", "coordinates": [7.74907, 48.54866]}, "properties": {"id": 1005015949, "camera:type": "dome", "man_made": "surveillance", "name": "Angle des rues de Bourgogne et de la Canardi\u00e8re (Meinau)", "source": "http://crep.strasbourg.free.fr/spip.php?article117", "surveillance": "public", "data_source": "planet_osm"}}, {"type": "Feature", "geometry": {"type": "Point", "coordinates": [7.794455, 48.572737]}, "properties": {"id": 1005015950, "camera:type": "dome", "man_made": "surveillance", "name": "Angle de la route du Rhin et de la rue Couleaux (Port du Rhin)", "source": "http://crep.strasbourg.free.fr/spip.php?article117", "surveillance": "public", "data_source": "planet_osm"}}, {"type": "Feature", "geometry": {"type": "Point", "coordinates": [7.7429362, 48.5818763]}, "properties": {"id": 1005015954, "camera:type": "dome", "man_made": "surveillance", "name": "Angle de la Grand'Rue et de la rue du Foss\u00e9 des tanneurs (Centre)", "source": "http://crep.strasbourg.free.fr/spip.php?article117", "support": "pole", "surveillance": "public", "data_source": "planet_osm"}}, {"type": "Feature", "geometry": {"type": "Point", "coordinates": [7.75173, 48.55216]}, "properties": {"id": 1005015958, "camera:type": "dome", "man_made": "surveillance", "name": "Angle de la rue de Franche-Comt\u00e9 et de la route de la Meinau (Meinau)", "source": "http://crep.strasbourg.free.fr/spip.php?article117", "surveillance": "public", "data_source": "planet_osm"}}, {"type": "Feature", "geometry": {"type": "Point", "coordinates": [7.76458, 48.61936]}, "properties": {"id": 1005015961, "camera:type": "dome", "man_made": "surveillance", "name": "Angle avenue du G\u00e9n\u00e9ral de Gaulle et rue du Lichtenberg (Hoenheim)", "source": "http://crep.strasbourg.free.fr/spip.php?article117", "surveillance": "public", "data_source": "planet_osm"}}, {"type": "Feature", "geometry": {"type": "Point", "coordinates": [7.7417781, 48.5838511]}, "properties": {"id": 1005015964, "camera:mount": "pole", "camera:type": "dome", "man_made": "surveillance", "name": "Place du Vieux March\u00e9 aux vins (Centre)", "source": "http://crep.strasbourg.free.fr/spip.php?article117", "support": "pole", "surveillance": "public", "surveillance:type": "camera", "surveillance:zone": "public", "data_source": "planet_osm"}}, {"type": "Feature", "geometry": {"type": "Point", "coordinates": [7.76569, 48.54441]}, "properties": {"id": 1005015967, "camera:type": "dome", "man_made": "surveillance", "name": "Angle de la route d'Altenheim et de la rue de la Ganzau (Neudorf)", "source": "http://crep.strasbourg.free.fr/spip.php?article117", "surveillance": "public", "data_source": "planet_osm"}}, {"type": "Feature", "geometry": {"type": "Point", "coordinates": [7.74677, 48.58322]}, "properties": {"id": 1005015972, "camera:type": "dome", "man_made": "surveillance", "name": "Place Kl\u00e9ber / Grandes Arcades (Centre)", "source": "http://crep.strasbourg.free.fr/spip.php?article117", "surveillance": "public", "data_source": "planet_osm"}}, {"type": "Feature", "geometry": {"type": "Point", "coordinates": [7.73443, 48.58395]}, "properties": {"id": 1005015975, "camera:type": "dome", "man_made": "surveillance", "name": "Place de la Gare / Boulevard de Metz (Gare)", "source": "http://crep.strasbourg.free.fr/spip.php?article117", "surveillance": "public", "data_source": "planet_osm"}}, {"type": "Feature", "geometry": {"type": "Point", "coordinates": [7.75557, 48.54778]}, "properties": {"id": 1005015976, "camera:type": "dome", "man_made": "surveillance", "name": "Rue Auguste Brion (Meinau)", "source": "http://crep.strasbourg.free.fr/spip.php?article117", "surveillance": "public", "data_source": "planet_osm"}}, {"type": "Feature", "geometry": {"type": "Point", "coordinates": [7.76787, 48.61696]}, "properties": {"id": 1005015977, "camera:type": "dome", "man_made": "surveillance", "name": "Angle de la rue du Marais et de l'avenue De Gaulle (Bischheim)", "source": "http://crep.strasbourg.free.fr/spip.php?article117", "surveillance": "public", "data_source": "planet_osm"}}, {"type": "Feature", "geometry": {"type": "Point", "coordinates": [7.7545864, 48.5851733]}, "properties": {"id": 1005015979, "camera:mount": "pole", "camera:type": "dome", "image": "https://www.bing.com/maps?osid=87664f70-1382-43b0-b620-d9aa84fc1332&cp=48.585183~7.754727&lvl=19&dir=299.41205&pi=4.6633525&style=x&mo=z.0&v=2&sV=2&form=S00027", "man_made": "surveillance", "name": "Angle du quai Marn\u00e9sia et de la rue des R\u00e9collets (Centre)", "source": "http://crep.strasbourg.free.fr/spip.php?article117", "support": "pole", "surveillance": "public", "surveillance:type": "camera", "surveillance:zone": "town", "data_source": "planet_osm"}}, {"type": "Feature", "geometry": {"type": "Point", "coordinates": [7.76669, 48.55165]}, "properties": {"id": 1005015981, "camera:type": "dome", "man_made": "surveillance", "name": "Rue de l'Indre (Neuhof)", "source": "http://crep.strasbourg.free.fr/spip.php?article117", "surveillance": "public", "data_source": "planet_osm"}}, {"type": "Feature", "geometry": {"type": "Point", "coordinates": [7.76278, 48.61633]}, "properties": {"id": 1005015985, "camera:type": "dome", "man_made": "surveillance", "name": "Rue du Guirbaden / Parc (Bischheim)", "source": "http://crep.strasbourg.free.fr/spip.php?article117", "surveillance": "public", "data_source": "planet_osm"}}, {"type": "Feature", "geometry": {"type": "Point", "coordinates": [7.7536, 48.58658]}, "properties": {"id": 1005015989, "camera:type": "dome", "man_made": "surveillance", "name": "Place de la R\u00e9publique / Tram (R\u00e9publique)", "source": "http://crep.strasbourg.free.fr/spip.php?article117", "surveillance": "public", "data_source": "planet_osm"}}, {"type": "Feature", "geometry": {"type": "Point", "coordinates": [7.77223, 48.54341]}, "properties": {"id": 1005015991, "camera:type": "dome", "man_made": "surveillance", "name": "Angle de l'all\u00e9e des D\u00e9port\u00e9s et de la rue de la Klebsau (Neuhof)", "source": "http://crep.strasbourg.free.fr/spip.php?article117", "surveillance": "public", "data_source": "planet_osm"}}, {"type": "Feature", "geometry": {"type": "Point", "coordinates": [7.73891, 48.61444]}, "properties": {"id": 1005015994, "camera:type": "dome", "man_made": "surveillance", "name": "Angle de l'avenue de P\u00e9rigueux et de la rue Lamartine (Bischheim)", "source": "http://crep.strasbourg.free.fr/spip.php?article117", "surveillance": "public", "data_source": "planet_osm"}}, {"type": "Feature", "geometry": {"type": "Point", "coordinates": [7.7468638, 48.5804096]}, "properties": {"id": 1005016004, "camera:direction": "315", "camera:mount": "pole", "camera:type": "dome", "man_made": "surveillance", "name": "Angle des rues des Serruriers et de la Division Leclerc (Centre)", "source": "http://crep.strasbourg.free.fr/spip.php?article117", "surveillance": "public", "surveillance:type": "camera", "surveillance:zone": "town", "data_source": "planet_osm"}}, {"type": "Feature", "geometry": {"type": "Point", "coordinates": [7.770374, 48.5714346]}, "properties": {"id": 1005016006, "camera:mount": "pole", "camera:type": "dome", "check_date": "2025-09-25", "man_made": "surveillance", "source": "http://crep.strasbourg.free.fr/spip.php?article117", "surveillance": "public", "surveillance:type": "camera", "surveillance:zone": "town", "data_source": "planet_osm"}}, {"type": "Feature", "geometry": {"type": "Point", "coordinates": [7.7730268, 48.61321]}, "properties": {"id": 1005016017, "camera:mount": "pole", "camera:type": "dome", "image": "https://www.bing.com/maps?osid=7dc186f0-e6cc-4ce1-98bc-ed1203079dca&cp=48.613158~7.772889&lvl=19&dir=69.36181&pi=18.020205&style=x&mo=z.0&v=2&sV=2&form=S00027", "man_made": "surveillance", "name": "Angle des rues de l'Ill et de la Doller (Cit\u00e9 de l'Ill)", "source": "http://crep.strasbourg.free.fr/spip.php?article117", "surveillance": "public", "surveillance:type": "camera", "data_source": "planet_osm"}}, {"type": "Feature", "geometry": {"type": "Point", "coordinates": [7.7534894, 48.5741509]}, "properties": {"id": 1005016029, "camera:type": "dome", "man_made": "surveillance", "name": "Place de l'Etoile / Centre administratif / 1 (Neudorf)", "source": "http://crep.strasbourg.free.fr/spip.php?article117", "surveillance": "public", "data_source": "planet_osm"}}, {"type": "Feature", "geometry": {"type": "Point", "coordinates": [7.77124, 48.61342]}, "properties": {"id": 1005016035, "camera:type": "dome", "man_made": "surveillance", "name": "Angle des rues de l'Ill et de la Lauch (Cit\u00e9 de l'Ill)", "source": "http://crep.strasbourg.free.fr/spip.php?article117", "surveillance": "public", "data_source": "planet_osm"}}, {"type": "Feature", "geometry": {"type": "Point", "coordinates": [7.76524, 48.57255]}, "properties": {"id": 1005016048, "camera:type": "dome", "description": "Cam\u00e9ra \u00e0 l\u2019angle de la route du Rhin et du pont Winston Churchill (Neudorf)", "man_made": "surveillance", "source": "http://crep.strasbourg.free.fr/spip.php?article117", "surveillance": "public", "surveillance:type": "camera", "surveillance:zone": "town", "data_source": "planet_osm"}}, {"type": "Feature", "geometry": {"type": "Point", "coordinates": [7.7605533, 48.5982821]}, "properties": {"id": 1005016058, "camera:type": "dome", "man_made": "surveillance", "name": "Place du Wacken / Sud (Wacken)", "source": "http://crep.strasbourg.free.fr/spip.php?article117", "surveillance": "public", "data_source": "planet_osm"}}, {"type": "Feature", "geometry": {"type": "Point", "coordinates": [7.73936, 48.58272]}, "properties": {"id": 1005016063, "camera:type": "panning", "man_made": "surveillance", "name": "D\u00e9but de la Grand'Rue (Centre)", "source": "http://crep.strasbourg.free.fr/spip.php?article117", "surveillance": "public", "data_source": "planet_osm"}}, {"type": "Feature", "geometry": {"type": "Point", "coordinates": [7.7619, 48.64105]}, "properties": {"id": 1005016067, "camera:type": "dome", "man_made": "surveillance", "name": "Au bout de la rue de Picardie (Reichstett)", "source": "http://crep.strasbourg.free.fr/spip.php?article117", "surveillance": "public", "data_source": "planet_osm"}}, {"type": "Feature", "geometry": {"type": "Point", "coordinates": [7.7608778, 48.5853362]}, "properties": {"id": 1005016071, "camera:mount": "street_lamp", "camera:type": "panning", "man_made": "surveillance", "name": "Devant le Palais universitaire (Krutenau)", "source": "http://crep.strasbourg.free.fr/spip.php?article117", "surveillance": "public", "surveillance:type": "camera", "data_source": "planet_osm"}}, {"type": "Feature", "geometry": {"type": "Point", "coordinates": [7.74597, 48.59244]}, "properties": {"id": 1005016086, "camera:type": "dome", "man_made": "surveillance", "name": "Rue Jacques Kabl\u00e9 (Wacken)", "source": "http://crep.strasbourg.free.fr/spip.php?article117", "surveillance": "public", "data_source": "planet_osm"}}, {"type": "Feature", "geometry": {"type": "Point", "coordinates": [7.77304, 48.56694]}, "properties": {"id": 1005016101, "camera:type": "dome", "man_made": "surveillance", "name": "Angle des avenues Jean Jaur\u00e8s et Aristide Briand (Neudorf)", "source": "http://crep.strasbourg.free.fr/spip.php?article117", "surveillance": "public", "data_source": "planet_osm"}}, {"type": "Feature", "geometry": {"type": "Point", "coordinates": [7.7589602, 48.5841466]}, "properties": {"id": 1005016103, "camera:type": "dome", "fixme": "Position incorrecte", "man_made": "surveillance", "name": "Boulevard de la Victoire / Gallia (Krutenau)", "source": "http://crep.strasbourg.free.fr/spip.php?article117", "surveillance": "public", "data_source": "planet_osm"}}, {"type": "Feature", "geometry": {"type": "Point", "coordinates": [7.76317, 48.58627]}, "properties": {"id": 1005016108, "camera:type": "dome", "description": "Angle de l'all\u00e9e de la Robertsau et de l'avenue de la For\u00eat Noire (Orangerie-Quinze)", "man_made": "surveillance", "source": "http://crep.strasbourg.free.fr/spip.php?article117", "surveillance": "public", "data_source": "planet_osm"}}, {"type": "Feature", "geometry": {"type": "Point", "coordinates": [7.74891, 48.58179]}, "properties": {"id": 1005016115, "camera:type": "dome", "man_made": "surveillance", "name": "Rue des Hallebardes (Centre)", "source": "http://crep.strasbourg.free.fr/spip.php?article117", "surveillance": "public", "data_source": "planet_osm"}}, {"type": "Feature", "geometry": {"type": "Point", "coordinates": [7.76185, 48.57964]}, "properties": {"id": 1005016116, "camera:mount": "pole", "camera:type": "dome", "check_date": "2025-09-13", "man_made": "surveillance", "source": "http://crep.strasbourg.free.fr/spip.php?article117", "surveillance": "public", "surveillance:type": "camera", "surveillance:zone": "town", "data_source": "planet_osm"}}, {"type": "Feature", "geometry": {"type": "Point", "coordinates": [7.7526, 48.56214]}, "properties": {"id": 1005016117, "camera:type": "dome", "description": "Angle de l'avenue de Colmar et de la rue de l'Extenwoerth (Meinau)", "man_made": "surveillance", "source": "http://crep.strasbourg.free.fr/spip.php?article117", "surveillance": "public", "data_source": "planet_osm"}}, {"type": "Feature", "geometry": {"type": "Point", "coordinates": [7.7731463, 48.5947365]}, "properties": {"id": 1005016118, "camera:type": "panning", "man_made": "surveillance", "name": "Avenue de l'Europe / Parc de l'Orangerie (Orangerie-Quinze)", "source": "http://crep.strasbourg.free.fr/spip.php?article117", "surveillance": "public", "data_source": "planet_osm"}}, {"type": "Feature", "geometry": {"type": "Point", "coordinates": [7.74017, 48.58248]}, "properties": {"id": 1005016120, "camera:type": "dome", "man_made": "surveillance", "name": "Angle de la Grand Rue et de la rue des Lentilles (Centre)", "source": "http://crep.strasbourg.free.fr/spip.php?article117", "surveillance": "public", "data_source": "planet_osm"}}, {"type": "Feature", "geometry": {"type": "Point", "coordinates": [7.7356999, 48.5823896]}, "properties": {"id": 1005016121, "camera:type": "dome", "check_date": "2025-10-17", "man_made": "surveillance", "source": "http://crep.strasbourg.free.fr/spip.php?article117", "surveillance": "public", "surveillance:type": "camera", "surveillance:zone": "town", "data_source": "planet_osm"}}, {"type": "Feature", "geometry": {"type": "Point", "coordinates": [7.7462777, 48.5811364]}, "properties": {"id": 1005016125, "camera:mount": "pole", "camera:type": "dome", "man_made": "surveillance", "name": "Angle de la Grand'Rue et de la rue de la Division Leclerc (Centre)", "source": "http://crep.strasbourg.free.fr/spip.php?article117", "surveillance": "public", "surveillance:type": "camera", "surveillance:zone": "town", "data_source": "planet_osm"}}, {"type": "Feature", "geometry": {"type": "Point", "coordinates": [7.7489622, 48.5583692]}, "properties": {"id": 1005016127, "camera:type": "dome", "description": "http://crep.strasbourg.free.fr/spip.php?article117", "man_made": "surveillance", "source": "survey", "surveillance": "public", "data_source": "planet_osm"}}, {"type": "Feature", "geometry": {"type": "Point", "coordinates": [7.76795, 48.62143]}, "properties": {"id": 1005016129, "camera:type": "dome", "man_made": "surveillance", "name": "Angle avenue du G\u00e9n\u00e9ral de Gaulle et rue du Lichtenberg (Hoenheim)", "source": "http://crep.strasbourg.free.fr/spip.php?article117", "surveillance": "public", "data_source": "planet_osm"}}, {"type": "Feature", "geometry": {"type": "Point", "coordinates": [7.74864, 48.58702]}, "properties": {"id": 1005016130, "camera:type": "dome", "man_made": "surveillance", "name": "Angle du quai Schoepflin et de la rue de la Fonderie (Centre)", "source": "http://crep.strasbourg.free.fr/spip.php?article117", "surveillance": "public", "data_source": "planet_osm"}}, {"type": "Feature", "geometry": {"type": "Point", "coordinates": [7.75681, 48.54488]}, "properties": {"id": 1005016132, "camera:type": "dome", "man_made": "surveillance", "name": "Rue de la Corse (Meinau)", "source": "http://crep.strasbourg.free.fr/spip.php?article117", "surveillance": "public", "data_source": "planet_osm"}}, {"type": "Feature", "geometry": {"type": "Point", "coordinates": [7.76501, 48.62279]}, "properties": {"id": 1005016134, "camera:type": "dome", "man_made": "surveillance", "name": "Rue d'Andlau (Hoenheim)", "source": "http://crep.strasbourg.free.fr/spip.php?article117", "surveillance": "public", "data_source": "planet_osm"}}, {"type": "Feature", "geometry": {"type": "Point", "coordinates": [7.74464, 48.5843]}, "properties": {"id": 1005016135, "camera:type": "dome", "man_made": "surveillance", "name": "Place de l'Homme de fer (Centre)", "source": "http://crep.strasbourg.free.fr/spip.php?article117", "surveillance": "public", "data_source": "planet_osm"}}, {"type": "Feature", "geometry": {"type": "Point", "coordinates": [7.7411407, 48.5875116]}, "properties": {"id": 1005016136, "camera:type": "dome", "man_made": "surveillance", "name": "Gare routi\u00e8re (Gare)", "source": "http://crep.strasbourg.free.fr/spip.php?article117", "surveillance": "public", "data_source": "planet_osm"}}, {"type": "Feature", "geometry": {"type": "Point", "coordinates": [7.75381, 48.54684]}, "properties": {"id": 1005016137, "camera:type": "dome", "man_made": "surveillance", "name": "Rue Arthur Weeber (Meinau)", "source": "http://crep.strasbourg.free.fr/spip.php?article117", "surveillance": "public", "data_source": "planet_osm"}}, {"type": "Feature", "geometry": {"type": "Point", "coordinates": [7.76721, 48.6125]}, "properties": {"id": 1005016138, "camera:type": "dome", "man_made": "surveillance", "name": "Angle de la rue du Marais et de la rue de la Robertsau (Bischheim)", "source": "http://crep.strasbourg.free.fr/spip.php?article117", "surveillance": "public", "data_source": "planet_osm"}}, {"type": "Feature", "geometry": {"type": "Point", "coordinates": [7.7508955, 48.579406]}, "properties": {"id": 1005016139, "camera:mount": "pole", "camera:type": "dome", "man_made": "surveillance", "name": "Pont du Corbeau (Centre)", "source": "http://crep.strasbourg.free.fr/spip.php?article117", "surveillance": "public", "surveillance:type": "camera", "surveillance:zone": "town", "data_source": "planet_osm"}}, {"type": "Feature", "geometry": {"type": "Point", "coordinates": [7.76745, 48.54583]}, "properties": {"id": 1005016140, "camera:type": "dome", "man_made": "surveillance", "name": "All\u00e9e Reuss (Neuhof)", "source": "http://crep.strasbourg.free.fr/spip.php?article117", "surveillance": "public", "data_source": "planet_osm"}}, {"type": "Feature", "geometry": {"type": "Point", "coordinates": [7.7628, 48.61747]}, "properties": {"id": 1005016142, "camera:type": "dome", "description": "Rue du Guirbaden / CSC / Vivre ensemble (Bischheim)", "man_made": "surveillance", "note": "Toujours pr\u00e9sent\u202f?", "source": "http://crep.strasbourg.free.fr/spip.php?article117", "surveillance": "public", "data_source": "planet_osm"}}, {"type": "Feature", "geometry": {"type": "Point", "coordinates": [7.7545219, 48.5860436]}, "properties": {"id": 1005016144, "camera:direction": "15", "camera:mount": "pole", "camera:type": "fixed", "man_made": "surveillance", "source": "http://crep.strasbourg.free.fr/spip.php?article117;survey", "surveillance": "public", "surveillance:type": "camera", "surveillance:zone": "town", "data_source": "planet_osm"}}, {"type": "Feature", "geometry": {"type": "Point", "coordinates": [7.77187, 48.54599]}, "properties": {"id": 1005016145, "camera:type": "dome", "man_made": "surveillance", "name": "Angle des rues Ingold et Jean Mermoz (Neuhof)", "source": "http://crep.strasbourg.free.fr/spip.php?article117", "surveillance": "public", "data_source": "planet_osm"}}, {"type": "Feature", "geometry": {"type": "Point", "coordinates": [7.77307, 48.61716]}, "properties": {"id": 1005016147, "camera:type": "dome", "man_made": "surveillance", "name": "Angle des rues de la Lauch et de la Li\u00e8pvrette (Cit\u00e9 de l'Ill)", "source": "http://crep.strasbourg.free.fr/spip.php?article117", "surveillance": "public", "data_source": "planet_osm"}}, {"type": "Feature", "geometry": {"type": "Point", "coordinates": [7.7405555, 48.4984345]}, "properties": {"id": 1005016148, "camera:type": "dome", "man_made": "surveillance", "name": "N353/Proche ruisseau Scwarzwasser (Rocade Sud)", "source": "http://crep.strasbourg.free.fr/spip.php?article117", "surveillance": "public", "data_source": "planet_osm"}}, {"type": "Feature", "geometry": {"type": "Point", "coordinates": [7.7426994, 48.585688]}, "properties": {"id": 1005016149, "camera:mount": "street_lamp", "camera:type": "dome", "man_made": "surveillance", "source": "http://crep.strasbourg.free.fr/spip.php?article117", "surveillance": "public", "surveillance:type": "camera", "surveillance:zone": "town", "data_source": "planet_osm"}}, {"type": "Feature", "geometry": {"type": "Point", "coordinates": [7.77831, 48.56924]}, "properties": {"id": 1005016150, "camera:type": "panning", "man_made": "surveillance", "name": "Route du Rhin / Avenue Aristide Briand (Neudorf)", "source": "http://crep.strasbourg.free.fr/spip.php?article117", "surveillance": "public", "data_source": "planet_osm"}}, {"type": "Feature", "geometry": {"type": "Point", "coordinates": [7.77374, 48.61345]}, "properties": {"id": 1005016152, "camera:type": "dome", "man_made": "surveillance", "name": "Arri\u00e8re de la Poste / Supermarch\u00e9 / CSC pr\u00e8s de la rue de la Doller (Cit\u00e9 de l'Ill)", "source": "http://crep.strasbourg.free.fr/spip.php?article117", "surveillance": "public", "data_source": "planet_osm"}}, {"type": "Feature", "geometry": {"type": "Point", "coordinates": [7.7350643, 48.600344]}, "properties": {"id": 1005016153, "camera:type": "dome", "man_made": "surveillance", "name": "A4 / Proche de la rue de l'Abattoir", "source": "http://crep.strasbourg.free.fr/spip.php?article117", "surveillance": "public", "data_source": "planet_osm"}}, {"type": "Feature", "geometry": {"type": "Point", "coordinates": [7.7550257, 48.5869309]}, "properties": {"id": 1005016154, "camera:type": "dome", "man_made": "surveillance", "name": "Place de la R\u00e9publique / Avenue de la Libert\u00e9 (R\u00e9publique)", "source": "http://crep.strasbourg.free.fr/spip.php?article117", "surveillance": "public", "data_source": "planet_osm"}}, {"type": "Feature", "geometry": {"type": "Point", "coordinates": [7.77093, 48.6154]}, "properties": {"id": 1005016157, "camera:type": "dome", "man_made": "surveillance", "name": "Angle des rues de la Kirneck et de la Magel (Cit\u00e9 de l'Ill)", "source": "http://crep.strasbourg.free.fr/spip.php?article117", "surveillance": "public", "data_source": "planet_osm"}}, {"type": "Feature", "geometry": {"type": "Point", "coordinates": [7.7426844, 48.5751415]}, "properties": {"id": 1005016159, "camera:mount": "street_lamp", "camera:type": "dome", "man_made": "surveillance", "name": "H\u00f4pital civil / Nouvelle entr\u00e9e (Centre)", "source": "http://crep.strasbourg.free.fr/spip.php?article117", "surveillance": "public", "data_source": "planet_osm"}}, {"type": "Feature", "geometry": {"type": "Point", "coordinates": [7.74981, 48.57428]}, "properties": {"id": 1005016160, "camera:type": "dome", "man_made": "surveillance", "name": "Pont de la Porte de l'H\u00f4pital (Neudorf)", "source": "http://crep.strasbourg.free.fr/spip.php?article117", "surveillance": "public", "data_source": "planet_osm"}}, {"type": "Feature", "geometry": {"type": "Point", "coordinates": [7.76115, 48.59924]}, "properties": {"id": 1005016162, "camera:type": "dome", "man_made": "surveillance", "name": "Place du Wacken / Nord (Wacken)", "source": "http://crep.strasbourg.free.fr/spip.php?article117", "surveillance": "public", "data_source": "planet_osm"}}, {"type": "Feature", "geometry": {"type": "Point", "coordinates": [7.73786, 48.59231]}, "properties": {"id": 1005016163, "camera:type": "dome", "man_made": "surveillance", "name": "A35/A350 (Rocade Ouest)", "source": "http://crep.strasbourg.free.fr/spip.php?article117", "surveillance": "public", "data_source": "planet_osm"}}, {"type": "Feature", "geometry": {"type": "Point", "coordinates": [7.7415126, 48.5837943]}, "properties": {"id": 1005016165, "camera:direction": "70", "camera:mount": "pole", "camera:type": "fixed", "man_made": "surveillance", "name": "Place du Vieux March\u00e9 aux vins (Centre)", "source": "http://crep.strasbourg.free.fr/spip.php?article117", "surveillance": "public", "surveillance:type": "camera", "data_source": "planet_osm"}}, {"type": "Feature", "geometry": {"type": "Point", "coordinates": [7.7594742, 48.5654013]}, "properties": {"id": 1005016168, "camera:mount": "pole", "camera:type": "dome", "man_made": "surveillance", "source": "http://crep.strasbourg.free.fr/spip.php?article117", "surveillance": "public", "surveillance:type": "camera", "data_source": "planet_osm"}}, {"type": "Feature", "geometry": {"type": "Point", "coordinates": [7.75835, 48.59353]}, "properties": {"id": 1005016172, "camera:type": "panning", "man_made": "surveillance", "name": "Place de Bordeaux (Wacken)", "source": "http://crep.strasbourg.free.fr/spip.php?article117", "surveillance": "public", "data_source": "planet_osm"}}, {"type": "Feature", "geometry": {"type": "Point", "coordinates": [7.75265, 48.59328]}, "properties": {"id": 1005016173, "camera:type": "dome", "man_made": "surveillance", "name": "Angle des rues Jacques Kabl\u00e9 et de Bitche (Wacken)", "source": "http://crep.strasbourg.free.fr/spip.php?article117", "surveillance": "public", "data_source": "planet_osm"}}, {"type": "Feature", "geometry": {"type": "Point", "coordinates": [7.7509815, 48.582681]}, "properties": {"id": 1005016176, "camera:mount": "wall", "camera:type": "dome", "man_made": "surveillance", "name": "Angle des rues des Hallebardes et des Juifs (Centre)", "source": "http://crep.strasbourg.free.fr/spip.php?article117", "surveillance": "public", "surveillance:type": "camera", "data_source": "planet_osm"}}, {"type": "Feature", "geometry": {"type": "Point", "coordinates": [7.76888, 48.56415]}, "properties": {"id": 1005016180, "camera:type": "dome", "man_made": "surveillance", "name": "Angle des rues de Ribeauvill\u00e9 et de B\u00e2le (Neudorf)", "source": "http://crep.strasbourg.free.fr/spip.php?article117", "surveillance": "public", "data_source": "planet_osm"}}, {"type": "Feature", "geometry": {"type": "Point", "coordinates": [7.75553, 48.58034]}, "properties": {"id": 1005016182, "camera:type": "dome", "man_made": "surveillance", "name": "Rue des Bateliers (Krutenau)", "source": "http://crep.strasbourg.free.fr/spip.php?article117", "surveillance": "public", "data_source": "planet_osm"}}, {"type": "Feature", "geometry": {"type": "Point", "coordinates": [7.7558828, 48.5967514]}, "properties": {"id": 1005016186, "camera:type": "dome", "man_made": "surveillance", "name": "Avenue Herrenschmidt / Hilton (Wacken)", "source": "http://crep.strasbourg.free.fr/spip.php?article117", "surveillance": "public", "data_source": "planet_osm"}}, {"type": "Feature", "geometry": {"type": "Point", "coordinates": [7.74908, 48.58021]}, "properties": {"id": 1005016188, "camera:type": "dome", "man_made": "surveillance", "name": "Rue des Tonneliers / Place des Tripiers (Centre)", "source": "http://crep.strasbourg.free.fr/spip.php?article117", "surveillance": "public", "data_source": "planet_osm"}}, {"type": "Feature", "geometry": {"type": "Point", "coordinates": [7.7603222, 48.5853296]}, "properties": {"id": 1005016191, "camera:mount": "street_lamp", "camera:type": "dome", "check_date": "2023-02-01", "man_made": "surveillance", "mapillary": "512198763256576", "name": "Quai du Maire Dietrich / Place de l'Universit\u00e9 (Krutenau)", "source": "http://crep.strasbourg.free.fr/spip.php?article117", "source:geometry": "Mapillary 2017-10-11", "surveillance": "public", "surveillance:type": "camera", "data_source": "planet_osm"}}, {"type": "Feature", "geometry": {"type": "Point", "coordinates": [7.75626, 48.54894]}, "properties": {"id": 1005016192, "camera:type": "dome", "man_made": "surveillance", "name": "Rue Jean Hoepfner (Meinau)", "source": "http://crep.strasbourg.free.fr/spip.php?article117", "surveillance": "public", "data_source": "planet_osm"}}, {"type": "Feature", "geometry": {"type": "Point", "coordinates": [7.75559, 48.5900005]}, "properties": {"id": 1005016194, "camera:type": "dome", "man_made": "surveillance", "name": "Avenue de la Paix / Synagogue (Wacken)", "source": "http://crep.strasbourg.free.fr/spip.php?article117", "surveillance": "public", "data_source": "planet_osm"}}, {"type": "Feature", "geometry": {"type": "Point", "coordinates": [7.7402, 48.58158]}, "properties": {"id": 1005016198, "camera:type": "dome", "man_made": "surveillance", "name": "Rue du Bain aux plantes / Parking de la Petite France (Centre)", "source": "http://crep.strasbourg.free.fr/spip.php?article117", "surveillance": "public", "data_source": "planet_osm"}}, {"type": "Feature", "geometry": {"type": "Point", "coordinates": [7.7394, 48.58809]}, "properties": {"id": 1005016199, "camera:type": "panning", "man_made": "surveillance", "name": "Boulevard du Pr\u00e9sident Wilson / Arri\u00e8re des Halles (Gare)", "source": "http://crep.strasbourg.free.fr/spip.php?article117", "surveillance": "public", "data_source": "planet_osm"}}, {"type": "Feature", "geometry": {"type": "Point", "coordinates": [7.74518, 48.57998]}, "properties": {"id": 1005016208, "camera:type": "dome", "man_made": "surveillance", "name": "Place Saint-Thomas (Centre)", "source": "http://crep.strasbourg.free.fr/spip.php?article117", "surveillance": "public", "data_source": "planet_osm"}}, {"type": "Feature", "geometry": {"type": "Point", "coordinates": [7.75381, 48.54908]}, "properties": {"id": 1005016211, "camera:type": "dome", "man_made": "surveillance", "name": "Angle de la rue Schulmeister et de l'avenue de Normandie (Meinau)", "source": "http://crep.strasbourg.free.fr/spip.php?article117", "surveillance": "public", "data_source": "planet_osm"}}, {"type": "Feature", "geometry": {"type": "Point", "coordinates": [7.769567, 48.5788319]}, "properties": {"id": 1005016214, "camera:type": "dome", "man_made": "surveillance", "name": "Angle de l'avenue de Gaulle et de la rue de Londres (Esplanade)", "source": "http://crep.strasbourg.free.fr/spip.php?article117", "surveillance": "public", "data_source": "planet_osm"}}, {"type": "Feature", "geometry": {"type": "Point", "coordinates": [7.76839, 48.62267]}, "properties": {"id": 1005016215, "camera:type": "dome", "man_made": "surveillance", "name": "Rue du Ried / Supermarch\u00e9 Le Ried (Hoenheim)", "source": "http://crep.strasbourg.free.fr/spip.php?article117", "surveillance": "public", "data_source": "planet_osm"}}, {"type": "Feature", "geometry": {"type": "Point", "coordinates": [7.7409636, 48.584155]}, "properties": {"id": 1005016217, "camera:mount": "pole", "camera:type": "dome", "man_made": "surveillance", "name": "Angle du pont de Saverne et du quai Desaix (Centre) #1", "source": "http://crep.strasbourg.free.fr/spip.php?article117", "surveillance": "public", "surveillance:type": "camera", "surveillance:zone": "public", "data_source": "planet_osm"}}, {"type": "Feature", "geometry": {"type": "Point", "coordinates": [7.73583, 48.57633]}, "properties": {"id": 1005016219, "camera:type": "dome", "man_made": "surveillance", "name": "Rue de Saales (Gare)", "source": "http://crep.strasbourg.free.fr/spip.php?article117", "surveillance": "public", "data_source": "planet_osm"}}, {"type": "Feature", "geometry": {"type": "Point", "coordinates": [7.754799, 48.5467091]}, "properties": {"id": 1005016221, "camera:mount": "pole", "camera:type": "dome", "man_made": "surveillance", "name": "Angle des rues Eug\u00e8ne Imbs et Auguste Brion (Meinau)", "source": "http://crep.strasbourg.free.fr/spip.php?article117", "surveillance": "public", "surveillance:type": "camera", "data_source": "planet_osm"}}, {"type": "Feature", "geometry": {"type": "Point", "coordinates": [7.7635, 48.62408]}, "properties": {"id": 1005016225, "camera:type": "dome", "man_made": "surveillance", "name": "Angle des rues du Stade et du Ch\u00eane (Hoenheim)", "source": "http://crep.strasbourg.free.fr/spip.php?article117", "surveillance": "public", "data_source": "planet_osm"}}, {"type": "Feature", "geometry": {"type": "Point", "coordinates": [7.7401971, 48.5791204]}, "properties": {"id": 1005016227, "camera:mount": "pole", "camera:type": "dome", "man_made": "surveillance", "name": "Angle des ponts couverts et de la rue du Cygne (Centre)", "source": "http://crep.strasbourg.free.fr/spip.php?article117", "surveillance": "public", "surveillance:type": "camera", "surveillance:zone": "town", "data_source": "planet_osm"}}, {"type": "Feature", "geometry": {"type": "Point", "coordinates": [7.7388351, 48.5878071]}, "properties": {"id": 1005016230, "camera:type": "dome", "man_made": "surveillance", "name": "Angle de la rue du Faubourg de Saverne et du boulevard du Pr\u00e9sident Wilson (Gare)", "source": "http://crep.strasbourg.free.fr/spip.php?article117", "surveillance": "public", "data_source": "planet_osm"}}, {"type": "Feature", "geometry": {"type": "Point", "coordinates": [7.75149, 48.54742]}, "properties": {"id": 1005016231, "camera:type": "dome", "man_made": "surveillance", "name": "Angle de la rue Schulmeister et de l'avenue de la Canardi\u00e8re (Meinau)", "source": "http://crep.strasbourg.free.fr/spip.php?article117", "surveillance": "public", "data_source": "planet_osm"}}, {"type": "Feature", "geometry": {"type": "Point", "coordinates": [7.7649, 48.61614]}, "properties": {"id": 1005016233, "camera:type": "dome", "man_made": "surveillance", "name": "All\u00e9e Blaise Pascal (Bischheim)", "source": "http://crep.strasbourg.free.fr/spip.php?article117", "surveillance": "public", "data_source": "planet_osm"}}, {"type": "Feature", "geometry": {"type": "Point", "coordinates": [7.7495069, 48.5783183]}, "properties": {"id": 1005016236, "camera:mount": "traffic_signals", "camera:type": "dome", "man_made": "surveillance", "name": "Rue de la I\u00e8re Arm\u00e9e (Centre)", "source": "http://crep.strasbourg.free.fr/spip.php?article117", "surveillance": "public", "surveillance:type": "camera", "surveillance:zone": "town", "data_source": "planet_osm"}}, {"type": "Feature", "geometry": {"type": "Point", "coordinates": [7.73612, 48.58429]}, "properties": {"id": 1005016237, "camera:type": "dome", "man_made": "surveillance", "name": "Place de la Gare / Rue du Maire Kuss (Gare)", "source": "http://crep.strasbourg.free.fr/spip.php?article117", "surveillance": "public", "data_source": "planet_osm"}}, {"type": "Feature", "geometry": {"type": "Point", "coordinates": [7.76327, 48.61729]}, "properties": {"id": 1005016240, "camera:type": "dome", "man_made": "surveillance", "name": "Rue du Guirbaden / CSC / CUS Habitat (Bischheim)", "source": "http://crep.strasbourg.free.fr/spip.php?article117", "surveillance": "public", "data_source": "planet_osm"}}, {"type": "Feature", "geometry": {"type": "Point", "coordinates": [7.7549, 48.58868]}, "properties": {"id": 1005016243, "camera:type": "dome", "fixme": "Position incorrecte", "man_made": "surveillance", "name": "Angle des avenues des Vosges et de la Paix (R\u00e9publique)", "source": "http://crep.strasbourg.free.fr/spip.php?article117", "surveillance": "public", "data_source": "planet_osm"}}, {"type": "Feature", "geometry": {"type": "Point", "coordinates": [7.76302, 48.55432]}, "properties": {"id": 1005016246, "camera:type": "dome", "man_made": "surveillance", "name": "Rue des Canonniers (Neuhof)", "source": "http://crep.strasbourg.free.fr/spip.php?article117", "surveillance": "public", "data_source": "planet_osm"}}, {"type": "Feature", "geometry": {"type": "Point", "coordinates": [7.77521, 48.61628]}, "properties": {"id": 1005016248, "camera:type": "dome", "man_made": "surveillance", "name": "Angle des rues de la Doller et de la Li\u00e8pvrette (Cit\u00e9 de l'Ill)", "source": "http://crep.strasbourg.free.fr/spip.php?article117", "surveillance": "public", "data_source": "planet_osm"}}, {"type": "Feature", "geometry": {"type": "Point", "coordinates": [7.74336, 48.58581]}, "properties": {"id": 1005016249, "camera:type": "dome", "man_made": "surveillance", "name": "Halles / Pont de Paris (Gare)", "source": "http://crep.strasbourg.free.fr/spip.php?article117", "surveillance": "public", "surveillance:type": "camera", "surveillance:zone": "town", "data_source": "planet_osm"}}, {"type": "Feature", "geometry": {"type": "Point", "coordinates": [7.7733203, 48.5669946]}, "properties": {"id": 1005016250, "camera:direction": "275", "camera:type": "fixed", "check_date": "2025-09-18", "man_made": "surveillance", "source": "http://crep.strasbourg.free.fr/spip.php?article117", "surveillance": "public", "surveillance:type": "camera", "data_source": "planet_osm"}}, {"type": "Feature", "geometry": {"type": "Point", "coordinates": [7.74417, 48.58462]}, "properties": {"id": 1005016257, "camera:type": "panning", "man_made": "surveillance", "name": "Angle des rues du Noyer et Thomann (Centre)", "source": "http://crep.strasbourg.free.fr/spip.php?article117", "surveillance": "public", "data_source": "planet_osm"}}, {"type": "Feature", "geometry": {"type": "Point", "coordinates": [7.7633736, 48.5694929]}, "properties": {"id": 1005016259, "camera:direction": "350", "camera:type": "fixed", "check_date": "2025-09-18", "man_made": "surveillance", "source": "http://crep.strasbourg.free.fr/spip.php?article117", "surveillance": "public", "surveillance:type": "camera", "data_source": "planet_osm"}}, {"type": "Feature", "geometry": {"type": "Point", "coordinates": [7.76983, 48.61465]}, "properties": {"id": 1005016262, "camera:type": "dome", "man_made": "surveillance", "name": "Rue de la Magel / Stade Paul Nicolas (Cit\u00e9 de l'Ill)", "source": "http://crep.strasbourg.free.fr/spip.php?article117", "surveillance": "public", "data_source": "planet_osm"}}, {"type": "Feature", "geometry": {"type": "Point", "coordinates": [7.7386244, 48.5777385]}, "properties": {"id": 1005016266, "camera:mount": "pole", "camera:type": "dome", "man_made": "surveillance", "name": "Angle de la rue du Cygne et du pont Mathis (Centre)", "source": "http://crep.strasbourg.free.fr/spip.php?article117", "surveillance": "public", "surveillance:type": "camera", "surveillance:zone": "town", "data_source": "planet_osm"}}, {"type": "Feature", "geometry": {"type": "Point", "coordinates": [7.7628016, 48.5727964]}, "properties": {"id": 1005016269, "camera:type": "dome", "man_made": "surveillance", "name": "Route du Rhin (Neudorf)", "source": "http://crep.strasbourg.free.fr/spip.php?article117", "surveillance": "public", "surveillance:type": "camera", "data_source": "planet_osm"}}, {"type": "Feature", "geometry": {"type": "Point", "coordinates": [7.76778, 48.59969]}, "properties": {"id": 1005016272, "camera:type": "dome", "man_made": "surveillance", "name": "Pont devant le Parlement europ\u00e9en (Wacken)", "source": "http://crep.strasbourg.free.fr/spip.php?article117", "surveillance": "public", "data_source": "planet_osm"}}, {"type": "Feature", "geometry": {"type": "Point", "coordinates": [7.73977, 48.59725]}, "properties": {"id": 1005016275, "camera:type": "dome", "man_made": "surveillance", "name": "A35 / Proche des jardins du Hochweg (Rocade Ouest)", "source": "http://crep.strasbourg.free.fr/spip.php?article117", "surveillance": "public", "data_source": "planet_osm"}}, {"type": "Feature", "geometry": {"type": "Point", "coordinates": [7.7435365, 48.5825914]}, "properties": {"id": 1005016276, "camera:mount": "building", "camera:type": "dome", "man_made": "surveillance", "name": "Angle des rues du 22 Novembre et du Foss\u00e9 des Tanneurs (Centre)", "source": "http://crep.strasbourg.free.fr/spip.php?article117", "surveillance": "public", "surveillance:type": "camera", "surveillance:zone": "town", "data_source": "planet_osm"}}, {"type": "Feature", "geometry": {"type": "Point", "coordinates": [7.7631881, 48.5694798]}, "properties": {"id": 1005016278, "camera:mount": "pole", "camera:type": "dome", "check_date": "2025-09-18", "man_made": "surveillance", "source": "http://crep.strasbourg.free.fr/spip.php?article117", "surveillance": "public", "surveillance:type": "camera", "surveillance:zone": "town", "data_source": "planet_osm"}}, {"type": "Feature", "geometry": {"type": "Point", "coordinates": [7.75451, 48.60045]}, "properties": {"id": 1005016281, "camera:type": "panning", "man_made": "surveillance", "name": "Tram Rives de l'Aar (Wacken)", "source": "http://crep.strasbourg.free.fr/spip.php?article117", "surveillance": "public", "data_source": "planet_osm"}}, {"type": "Feature", "geometry": {"type": "Point", "coordinates": [7.75799, 48.59374]}, "properties": {"id": 1005016282, "camera:type": "dome", "man_made": "surveillance", "name": "Place de Bordeaux / Rue Jacques Kabl\u00e9 (Wacken)", "source": "http://crep.strasbourg.free.fr/spip.php?article117", "surveillance": "public", "data_source": "planet_osm"}}, {"type": "Feature", "geometry": {"type": "Point", "coordinates": [7.7639126, 48.5611563]}, "properties": {"id": 1005016286, "camera:type": "dome", "man_made": "surveillance", "name": "Angle de la route du Polygone et de la rue de la Gravi\u00e8re (Neudorf)", "source": "http://crep.strasbourg.free.fr/spip.php?article117", "surveillance": "public", "data_source": "planet_osm"}}, {"type": "Feature", "geometry": {"type": "Point", "coordinates": [7.75382, 48.57971]}, "properties": {"id": 1005016288, "camera:type": "dome", "man_made": "surveillance", "name": "Rue Sainte-Madeleine (Krutenau)", "source": "http://crep.strasbourg.free.fr/spip.php?article117", "surveillance": "public", "data_source": "planet_osm"}}, {"type": "Feature", "geometry": {"type": "Point", "coordinates": [7.7592399, 48.5966727]}, "properties": {"id": 1005016292, "camera:type": "dome", "man_made": "surveillance", "name": "Angle avenue Schutzenberger et rue Richard Strauss (Wacken)", "source": "http://crep.strasbourg.free.fr/spip.php?article117", "surveillance": "public", "data_source": "planet_osm"}}, {"type": "Feature", "geometry": {"type": "Point", "coordinates": [7.74823, 48.58231]}, "properties": {"id": 1005016293, "camera:type": "dome", "man_made": "surveillance", "name": "Place du March\u00e9 Neuf (Centre)", "source": "http://crep.strasbourg.free.fr/spip.php?article117", "surveillance": "public", "data_source": "planet_osm"}}, {"type": "Feature", "geometry": {"type": "Point", "coordinates": [7.751171, 48.580239]}, "properties": {"id": 1005016298, "camera:type": "dome", "description": "http://crep.strasbourg.free.fr/spip.php?article117", "man_made": "surveillance", "source": "survey", "surveillance": "public", "data_source": "planet_osm"}}, {"type": "Feature", "geometry": {"type": "Point", "coordinates": [7.7488618, 48.5785486]}, "properties": {"id": 1005016299, "camera:type": "dome", "man_made": "surveillance", "name": "Pont Saint-Nicolas (Krutenau)", "source": "http://crep.strasbourg.free.fr/spip.php?article117", "surveillance": "public", "surveillance:type": "camera", "surveillance:zone": "town", "data_source": "planet_osm"}}, {"type": "Feature", "geometry": {"type": "Point", "coordinates": [7.75839, 48.62877]}, "properties": {"id": 1005016314, "camera:type": "dome", "man_made": "surveillance", "name": "Tram Hoenheim Gare / 1 (Hoenheim)", "source": "http://crep.strasbourg.free.fr/spip.php?article117", "surveillance": "public", "data_source": "planet_osm"}}, {"type": "Feature", "geometry": {"type": "Point", "coordinates": [7.7479697, 48.5797038]}, "properties": {"id": 1005016316, "camera:mount": "wall", "camera:type": "dome", "man_made": "surveillance", "name": "Angle des rues de la Division Leclerc et de l'Ail (Centre)", "source": "http://crep.strasbourg.free.fr/spip.php?article117", "surveillance": "public", "surveillance:type": "camera", "surveillance:zone": "town", "data_source": "planet_osm"}}, {"type": "Feature", "geometry": {"type": "Point", "coordinates": [7.73454, 48.5839]}, "properties": {"id": 1005016318, "camera:type": "panning", "man_made": "surveillance", "name": "Place de la Gare (Gare)", "name:de": "Bahnhofsplatz", "source": "http://crep.strasbourg.free.fr/spip.php?article117", "surveillance": "public", "data_source": "planet_osm"}}, {"type": "Feature", "geometry": {"type": "Point", "coordinates": [7.75589, 48.55041]}, "properties": {"id": 1005016319, "camera:type": "dome", "man_made": "surveillance", "name": "Angle des rues Schulmeister et Louis Loucheur (Meinau)", "source": "http://crep.strasbourg.free.fr/spip.php?article117", "surveillance": "public", "data_source": "planet_osm"}}, {"type": "Feature", "geometry": {"type": "Point", "coordinates": [7.76995, 48.58107]}, "properties": {"id": 1005016322, "camera:type": "dome", "man_made": "surveillance", "name": "Angle de la rue Vauban et du boulevard de la Victoire (Esplanade)", "source": "http://crep.strasbourg.free.fr/spip.php?article117", "surveillance": "public", "data_source": "planet_osm"}}, {"type": "Feature", "geometry": {"type": "Point", "coordinates": [7.76717, 48.62232]}, "properties": {"id": 1005016323, "camera:type": "dome", "man_made": "surveillance", "name": "Rue du Ried / Cr\u00e8che (Hoenheim)", "source": "http://crep.strasbourg.free.fr/spip.php?article117", "surveillance": "public", "data_source": "planet_osm"}}, {"type": "Feature", "geometry": {"type": "Point", "coordinates": [7.75051, 48.54967]}, "properties": {"id": 1005016329, "camera:type": "dome", "man_made": "surveillance", "name": "Place de l'\u00cele de France / P\u00f4le Sud (Meinau)", "source": "http://crep.strasbourg.free.fr/spip.php?article117", "surveillance": "public", "data_source": "planet_osm"}}, {"type": "Feature", "geometry": {"type": "Point", "coordinates": [7.7604661, 48.6261216]}, "properties": {"id": 1005016332, "camera:type": "dome", "man_made": "surveillance", "name": "Rue du Ch\u00eane / City Stade (Hoenheim)", "source": "http://crep.strasbourg.free.fr/spip.php?article117", "surveillance": "public", "data_source": "planet_osm"}}, {"type": "Feature", "geometry": {"type": "Point", "coordinates": [7.74546, 48.58444]}, "properties": {"id": 1005016334, "camera:type": "dome", "man_made": "surveillance", "name": "Rue de la M\u00e9sange / Aubette (Centre)", "source": "http://crep.strasbourg.free.fr/spip.php?article117", "surveillance": "public", "data_source": "planet_osm"}}, {"type": "Feature", "geometry": {"type": "Point", "coordinates": [7.7385132, 48.5833859]}, "properties": {"id": 1005016335, "camera:mount": "pole", "camera:type": "dome", "check_date": "2025-07-11", "man_made": "surveillance", "source": "http://crep.strasbourg.free.fr/spip.php?article117", "surveillance": "public", "surveillance:type": "camera", "surveillance:zone": "town", "data_source": "planet_osm"}}, {"type": "Feature", "geometry": {"type": "Point", "coordinates": [7.7527225, 48.5483903]}, "properties": {"id": 1005016337, "camera:type": "dome", "man_made": "surveillance", "name": "Rue Schulmeister (Meinau)", "source": "http://crep.strasbourg.free.fr/spip.php?article117", "surveillance": "public", "data_source": "planet_osm"}}, {"type": "Feature", "geometry": {"type": "Point", "coordinates": [7.7452, 48.58322]}, "properties": {"id": 1005016340, "camera:type": "dome", "man_made": "surveillance", "name": "Place Kl\u00e9ber / Fnac (Centre)", "source": "http://crep.strasbourg.free.fr/spip.php?article117", "surveillance": "public", "data_source": "planet_osm"}}, {"type": "Feature", "geometry": {"type": "Point", "coordinates": [7.73552, 48.58399]}, "properties": {"id": 1005016342, "camera:type": "dome", "man_made": "surveillance", "name": "Place de la Gare / Petite rue de la Course (Gare)", "source": "http://crep.strasbourg.free.fr/spip.php?article117", "surveillance": "public", "data_source": "planet_osm"}}, {"type": "Feature", "geometry": {"type": "Point", "coordinates": [7.76716, 48.6127]}, "properties": {"id": 1005016345, "camera:type": "panning", "man_made": "surveillance", "name": "Angle des rues du Marais et de la Robertsau (Bischheim)", "source": "http://crep.strasbourg.free.fr/spip.php?article117", "surveillance": "public", "data_source": "planet_osm"}}, {"type": "Feature", "geometry": {"type": "Point", "coordinates": [7.76559, 48.54622]}, "properties": {"id": 1005016349, "camera:type": "dome", "man_made": "surveillance", "name": "Angle de la route du Neuhof et de la rue de de l'Abb\u00e9 de l'Ep\u00e9e (Neuhof)", "source": "http://crep.strasbourg.free.fr/spip.php?article117", "surveillance": "public", "data_source": "planet_osm"}}, {"type": "Feature", "geometry": {"type": "Point", "coordinates": [7.7655194, 48.6095916]}, "properties": {"id": 1005016353, "camera:type": "dome", "man_made": "surveillance", "ref": "Angle de la rue du Marais et rue de Bretagne (Schiltigheim)", "source": "http://crep.strasbourg.free.fr/spip.php?article117", "surveillance": "public", "data_source": "planet_osm"}}, {"type": "Feature", "geometry": {"type": "Point", "coordinates": [7.742, 48.58531]}, "properties": {"id": 1005016355, "camera:type": "dome", "man_made": "surveillance", "name": "Halles / Station de Tram (Gare)", "source": "http://crep.strasbourg.free.fr/spip.php?article117", "surveillance": "public", "data_source": "planet_osm"}}, {"type": "Feature", "geometry": {"type": "Point", "coordinates": [7.75155, 48.56783]}, "properties": {"id": 1005016358, "camera:type": "panning", "man_made": "surveillance", "name": "Avenue de Colmar / Schluthfeld (Neudorf)", "source": "http://crep.strasbourg.free.fr/spip.php?article117", "surveillance": "public", "data_source": "planet_osm"}}, {"type": "Feature", "geometry": {"type": "Point", "coordinates": [7.7529365, 48.5989045]}, "properties": {"id": 1005016361, "camera:type": "panning", "man_made": "surveillance", "name": "Feu \u00e0 la sortie de l'autoroute (Schiltigheim)", "source": "http://crep.strasbourg.free.fr/spip.php?article117", "surveillance": "public", "data_source": "planet_osm"}}, {"type": "Feature", "geometry": {"type": "Point", "coordinates": [7.74976, 48.57464]}, "properties": {"id": 1005016366, "camera:mount": "traffic_signals", "camera:type": "panning", "man_made": "surveillance", "name": "Angle du quai Fustel de Coulanges et de la rue de la Porte de l'H\u00f4pital (Neudorf)", "source": "http://crep.strasbourg.free.fr/spip.php?article117", "surveillance": "public", "surveillance:type": "camera", "surveillance:zone": "traffic", "data_source": "planet_osm"}}, {"type": "Feature", "geometry": {"type": "Point", "coordinates": [7.77566, 48.61257]}, "properties": {"id": 1005016369, "camera:type": "dome", "man_made": "surveillance", "name": "Angle des rues de l'Ill et Hechner (Cit\u00e9 de l'Ill)", "source": "http://crep.strasbourg.free.fr/spip.php?article117", "surveillance": "public", "data_source": "planet_osm"}}, {"type": "Feature", "geometry": {"type": "Point", "coordinates": [7.74846, 48.58146]}, "properties": {"id": 1005016373, "camera:type": "panning", "man_made": "surveillance", "name": "Place Gutenberg (Centre)", "name:de": "Gutenbergplatz (Zentrum)", "source": "http://crep.strasbourg.free.fr/spip.php?article117", "surveillance": "public", "data_source": "planet_osm"}}, {"type": "Feature", "geometry": {"type": "Point", "coordinates": [7.755318, 48.5739146]}, "properties": {"id": 1005016375, "camera:type": "dome", "man_made": "surveillance", "name": "Place de l'Etoile / Place Dauphine (Neudorf)", "source": "http://crep.strasbourg.free.fr/spip.php?article117", "surveillance": "public", "surveillance:type": "camera", "data_source": "planet_osm"}}, {"type": "Feature", "geometry": {"type": "Point", "coordinates": [7.76481, 48.59095]}, "properties": {"id": 1005016378, "camera:type": "dome", "check_date": "2025-10-14", "man_made": "surveillance", "source": "http://crep.strasbourg.free.fr/spip.php?article117", "surveillance": "public", "surveillance:type": "camera", "surveillance:zone": "town", "data_source": "planet_osm"}}, {"type": "Feature", "geometry": {"type": "Point", "coordinates": [7.7436183, 48.5852468]}, "properties": {"id": 1005016381, "camera:type": "dome", "description": "Angle du quai de Paris et du pont de Paris (Centre)", "man_made": "surveillance", "source": "survey", "surveillance": "public", "surveillance:type": "camera", "surveillance:zone": "town", "data_source": "planet_osm"}}, {"type": "Feature", "geometry": {"type": "Point", "coordinates": [7.75369, 48.57303]}, "properties": {"id": 1005016383, "camera:type": "dome", "man_made": "surveillance", "name": "Place de l'Etoile / Centre administratif / 2 (Neudorf)", "source": "http://crep.strasbourg.free.fr/spip.php?article117", "surveillance": "public", "data_source": "planet_osm"}}, {"type": "Feature", "geometry": {"type": "Point", "coordinates": [7.7811999, 48.6112975]}, "properties": {"id": 1005016385, "camera:type": "dome", "man_made": "surveillance", "source": "http://crep.strasbourg.free.fr/spip.php?article117", "surveillance": "public", "data_source": "planet_osm"}}, {"type": "Feature", "geometry": {"type": "Point", "coordinates": [7.7583021, 48.5947729]}, "properties": {"id": 1005016388, "camera:type": "dome", "man_made": "surveillance", "name": "Place de Bordeaux / Holiday Inn (Wacken)", "source": "http://crep.strasbourg.free.fr/spip.php?article117", "surveillance": "public", "data_source": "planet_osm"}}, {"type": "Feature", "geometry": {"type": "Point", "coordinates": [7.75463, 48.58312]}, "properties": {"id": 1005016390, "camera:type": "dome", "man_made": "surveillance", "name": "Place Saint-Etienne (Centre)", "source": "http://crep.strasbourg.free.fr/spip.php?article117", "surveillance": "public", "data_source": "planet_osm"}}, {"type": "Feature", "geometry": {"type": "Point", "coordinates": [7.7668708, 48.5741918]}, "properties": {"id": 1005016395, "camera:type": "dome", "man_made": "surveillance", "name": "Pont Churchill (Neudorf)", "source": "http://crep.strasbourg.free.fr/spip.php?article117", "surveillance": "public", "data_source": "planet_osm"}}, {"type": "Feature", "geometry": {"type": "Point", "coordinates": [7.75897, 48.59732]}, "properties": {"id": 1005016401, "camera:type": "dome", "man_made": "surveillance", "name": "Palais de la musique et des congr\u00e8s / Entr\u00e9e (Wacken)", "source": "http://crep.strasbourg.free.fr/spip.php?article117", "surveillance": "public", "data_source": "planet_osm"}}, {"type": "Feature", "geometry": {"type": "Point", "coordinates": [7.7496833, 48.5838775]}, "properties": {"id": 1005016402, "camera:type": "dome", "man_made": "surveillance", "mapillary": "293236092415560", "name": "Rue du D\u00f4me (Centre)", "source": "http://crep.strasbourg.free.fr/spip.php?article117", "surveillance": "public", "data_source": "planet_osm"}}, {"type": "Feature", "geometry": {"type": "Point", "coordinates": [7.75151, 48.58125]}, "properties": {"id": 1005016406, "camera:type": "dome", "man_made": "surveillance", "source": "http://crep.strasbourg.free.fr/spip.php?article117", "surveillance": "public", "data_source": "planet_osm"}}, {"type": "Feature", "geometry": {"type": "Point", "coordinates": [7.7508871, 48.5792623]}, "properties": {"id": 1005016407, "camera:mount": "pole", "camera:type": "dome", "man_made": "surveillance", "name": "Place du Corbeau (Krutenau)", "source": "http://crep.strasbourg.free.fr/spip.php?article117", "surveillance": "public", "surveillance:type": "camera", "surveillance:zone": "town", "data_source": "planet_osm"}}, {"type": "Feature", "geometry": {"type": "Point", "coordinates": [7.769959, 48.5809556]}, "properties": {"id": 1005016411, "camera:type": "panning", "man_made": "surveillance", "name": "Jonction du boulevard de la Victoire et de la rue Vauban (Esplanade)", "source": "http://crep.strasbourg.free.fr/spip.php?article117", "surveillance": "public", "data_source": "planet_osm"}}, {"type": "Feature", "geometry": {"type": "Point", "coordinates": [7.77502, 48.58963]}, "properties": {"id": 1005016420, "camera:type": "dome", "man_made": "surveillance", "name": "Angle du boulevard de l'Orangerie et de la rue de Verdun (Orangerie-Quinze)", "source": "http://crep.strasbourg.free.fr/spip.php?article117", "surveillance": "public", "data_source": "planet_osm"}}, {"type": "Feature", "geometry": {"type": "Point", "coordinates": [7.7593, 48.6272]}, "properties": {"id": 1005016421, "camera:type": "panning", "man_made": "surveillance", "name": "Tram Hoenheim Gare / 2 (Hoenheim)", "source": "http://crep.strasbourg.free.fr/spip.php?article117", "surveillance": "public", "data_source": "planet_osm"}}, {"type": "Feature", "geometry": {"type": "Point", "coordinates": [7.73818, 48.58257]}, "properties": {"id": 1005016425, "camera:mount": "pole", "camera:type": "dome", "check_date": "2025-07-11", "man_made": "surveillance", "source": "http://crep.strasbourg.free.fr/spip.php?article117", "surveillance": "public", "surveillance:type": "camera", "surveillance:zone": "town", "data_source": "planet_osm"}}, {"type": "Feature", "geometry": {"type": "Point", "coordinates": [7.75789, 48.55133]}, "properties": {"id": 1005016427, "camera:type": "dome", "man_made": "surveillance", "name": "Angle de la rue du Rhin tortu et de la route de la Meinau (Meinau)", "source": "http://crep.strasbourg.free.fr/spip.php?article117", "surveillance": "public", "data_source": "planet_osm"}}, {"type": "Feature", "geometry": {"type": "Point", "coordinates": [7.76667, 48.57453]}, "properties": {"id": 1005016428, "camera:type": "dome", "check_date": "2025-10-31", "description": "Cam\u00e9ra \u00e0 l\u2019angle du quai des Alpes et du pont Winston Churchill (Esplanade)", "man_made": "surveillance", "source": "http://crep.strasbourg.free.fr/spip.php?article117", "surveillance": "public", "surveillance:type": "camera", "surveillance:zone": "town", "data_source": "planet_osm"}}, {"type": "Feature", "geometry": {"type": "Point", "coordinates": [7.7357067, 48.5823985]}, "properties": {"id": 1005016434, "camera:type": "dome", "check_date": "2025-10-17", "man_made": "surveillance", "source": "http://crep.strasbourg.free.fr/spip.php?article117", "surveillance": "public", "surveillance:type": "camera", "surveillance:zone": "town", "data_source": "planet_osm"}}, {"type": "Feature", "geometry": {"type": "Point", "coordinates": [7.75083, 48.55096]}, "properties": {"id": 1005016437, "camera:type": "dome", "man_made": "surveillance", "name": "Place de l'\u00cele de France / Rue de Franche-Comt\u00e9 (Meinau)", "source": "http://crep.strasbourg.free.fr/spip.php?article117", "surveillance": "public", "data_source": "planet_osm"}}, {"type": "Feature", "geometry": {"type": "Point", "coordinates": [7.7586448, 48.6273689]}, "properties": {"id": 1005016439, "camera:type": "dome", "man_made": "surveillance", "name": "Tram Hoenheim Gare / Route de la Wantzenau (Hoenheim)", "source": "http://crep.strasbourg.free.fr/spip.php?article117", "surveillance": "public", "data_source": "planet_osm"}}, {"type": "Feature", "geometry": {"type": "Point", "coordinates": [7.74454, 48.58385]}, "properties": {"id": 1005016442, "camera:type": "dome", "man_made": "surveillance", "name": "Place de l'Homme de fer / Rue du Foss\u00e9 des Tanneurs (Centre)", "source": "http://crep.strasbourg.free.fr/spip.php?article117", "surveillance": "public", "data_source": "planet_osm"}}, {"type": "Feature", "geometry": {"type": "Point", "coordinates": [7.7363306, 48.5855961]}, "properties": {"id": 1005016443, "camera:mount": "pole", "camera:type": "dome", "description": "Place de la Gare / Boulevard du Pr\u00e9sident Wilson (Gare)", "man_made": "surveillance", "source": "http://crep.strasbourg.free.fr/spip.php?article117;survey", "surveillance": "public", "surveillance:type": "camera", "surveillance:zone": "town", "data_source": "planet_osm"}}, {"type": "Feature", "geometry": {"type": "Point", "coordinates": [7.7464745, 48.583811]}, "properties": {"id": 1005016447, "camera:mount": "wall", "camera:type": "dome", "man_made": "surveillance", "name": "Place Kl\u00e9ber / Aubette (Centre)", "source": "http://crep.strasbourg.free.fr/spip.php?article117", "surveillance": "public", "surveillance:type": "camera", "surveillance:zone": "town", "data_source": "planet_osm"}}, {"type": "Feature", "geometry": {"type": "Point", "coordinates": [7.73468, 48.58443]}, "properties": {"id": 1005016450, "camera:type": "dome", "man_made": "surveillance", "name": "Place de la Gare / Gare (Gare)", "source": "http://crep.strasbourg.free.fr/spip.php?article117", "surveillance": "public", "data_source": "planet_osm"}}, {"type": "Feature", "geometry": {"type": "Point", "coordinates": [7.74559, 48.58189]}, "properties": {"id": 1005016455, "camera:mount": "pole", "camera:type": "dome", "man_made": "surveillance", "name": "Rue Sainte-H\u00e9l\u00e8ne (Centre)", "source": "http://crep.strasbourg.free.fr/spip.php?article117", "surveillance": "public", "surveillance:type": "camera", "surveillance:zone": "street", "data_source": "planet_osm"}}, {"type": "Feature", "geometry": {"type": "Point", "coordinates": [7.76092, 48.54549]}, "properties": {"id": 1005016457, "camera:type": "dome", "man_made": "surveillance", "name": "Angle des rues de l'Abb\u00e9 de l'Ep\u00e9e et des Linottes (Neuhof)", "source": "http://crep.strasbourg.free.fr/spip.php?article117", "surveillance": "public", "data_source": "planet_osm"}}, {"type": "Feature", "geometry": {"type": "Point", "coordinates": [7.9992386, 48.4714003]}, "properties": {"id": 1052518253, "man_made": "surveillance", "data_source": "planet_osm"}}, {"type": "Feature", "geometry": {"type": "Point", "coordinates": [7.746456, 48.5908506]}, "properties": {"id": 1210841560, "camera:type": "dome", "man_made": "surveillance", "name": "Angle du boulevard Clemenceau et de la rue Finkmatt", "source": "survey", "surveillance": "public", "surveillance:type": "camera", "surveillance:zone": "public", "data_source": "planet_osm"}}, {"type": "Feature", "geometry": {"type": "Point", "coordinates": [7.9397878, 48.4633282]}, "properties": {"id": 1667675902, "man_made": "surveillance", "data_source": "planet_osm"}}, {"type": "Feature", "geometry": {"type": "Point", "coordinates": [7.7537261, 48.5730779]}, "properties": {"id": 2529529347, "man_made": "surveillance", "operator": "Communaut\u00e9 Urbain de Strasbourg", "data_source": "planet_osm"}}, {"type": "Feature", "geometry": {"type": "Point", "coordinates": [7.9432744, 48.4713726]}, "properties": {"id": 2578168731, "man_made": "surveillance", "surveillance": "outdoor", "data_source": "planet_osm"}}, {"type": "Feature", "geometry": {"type": "Point", "coordinates": [7.943526, 48.471638]}, "properties": {"id": 2656691853, "camera:type": "fixed", "check_date": "2021-12-31", "man_made": "surveillance", "surveillance": "outdoor", "surveillance:type": "camera", "data_source": "planet_osm"}}, {"type": "Feature", "geometry": {"type": "Point", "coordinates": [7.9413731, 48.4672647]}, "properties": {"id": 2981354379, "access": "yes", "amenity": "parking", "capacity": "104", "fee": "yes", "layer": "-1", "man_made": "surveillance", "maxheight": "2", "name": "Kino Forum Offenburg", "opening_hours": "24/7", "operator": "FORUM Offenburg", "parking": "underground", "payment:cash": "yes", "source": "http://www.offenburg.de/html/parkmoeglichkeiten_und_tarife.html", "surveillance": "indoor", "wheelchair": "yes", "data_source": "planet_osm"}}, {"type": "Feature", "geometry": {"type": "Point", "coordinates": [8.0793078, 48.6289579]}, "properties": {"id": 4347886431, "camera:angle": "60", "camera:direction": "270", "camera:mount": "pole", "height": "2", "man_made": "surveillance", "data_source": "planet_osm"}}, {"type": "Feature", "geometry": {"type": "Point", "coordinates": [8.0794268, 48.6289798]}, "properties": {"id": 4347903762, "man_made": "surveillance", "data_source": "planet_osm"}}, {"type": "Feature", "geometry": {"type": "Point", "coordinates": [7.9376119, 48.4779702]}, "properties": {"id": 4512848513, "camera:direction": "90", "camera:mount": "wall", "camera:type": "fixed", "check_date": "2023-01-30", "height": "3", "man_made": "surveillance", "surveillance": "public", "surveillance:type": "camera", "surveillance:zone": "entrance", "data_source": "planet_osm"}}, {"type": "Feature", "geometry": {"type": "Point", "coordinates": [7.7915305, 48.5688491]}, "properties": {"id": 4703140144, "camera:mount": "pole", "camera:type": "dome", "man_made": "surveillance", "surveillance": "outdoor", "surveillance:type": "camera", "surveillance:zone": "traffic", "data_source": "planet_osm"}}, {"type": "Feature", "geometry": {"type": "Point", "coordinates": [7.7560288, 48.5839066]}, "properties": {"id": 4787114798, "man_made": "surveillance", "source": "survey", "data_source": "planet_osm"}}, {"type": "Feature", "geometry": {"type": "Point", "coordinates": [8.0798596, 48.5222415]}, "properties": {"id": 4871504981, "man_made": "surveillance", "surveillance:type": "camera", "data_source": "planet_osm"}}, {"type": "Feature", "geometry": {"type": "Point", "coordinates": [8.0846714, 48.521037]}, "properties": {"id": 4871504986, "man_made": "surveillance", "surveillance:type": "camera", "data_source": "planet_osm"}}, {"type": "Feature", "geometry": {"type": "Point", "coordinates": [8.0679401, 48.5277265]}, "properties": {"id": 4871520806, "man_made": "surveillance", "surveillance:type": "camera", "data_source": "planet_osm"}}, {"type": "Feature", "geometry": {"type": "Point", "coordinates": [8.0754769, 48.5245385]}, "properties": {"id": 4871520807, "man_made": "surveillance", "surveillance:type": "camera", "data_source": "planet_osm"}}, {"type": "Feature", "geometry": {"type": "Point", "coordinates": [8.0758148, 48.524455]}, "properties": {"id": 4871520809, "man_made": "surveillance", "surveillance:type": "camera", "data_source": "planet_osm"}}, {"type": "Feature", "geometry": {"type": "Point", "coordinates": [8.06202, 48.5297881]}, "properties": {"id": 4871535899, "man_made": "surveillance", "surveillance:type": "camera", "data_source": "planet_osm"}}, {"type": "Feature", "geometry": {"type": "Point", "coordinates": [8.0649372, 48.5287538]}, "properties": {"id": 4871535905, "man_made": "surveillance", "surveillance:type": "camera", "data_source": "planet_osm"}}, {"type": "Feature", "geometry": {"type": "Point", "coordinates": [7.8203921, 48.4948422]}, "properties": {"id": 4872189742, "man_made": "surveillance", "surveillance:type": "camera", "data_source": "planet_osm"}}, {"type": "Feature", "geometry": {"type": "Point", "coordinates": [7.7369258, 48.667803]}, "properties": {"id": 4876437053, "man_made": "surveillance", "surveillance:type": "camera", "data_source": "planet_osm"}}, {"type": "Feature", "geometry": {"type": "Point", "coordinates": [7.7373952, 48.6583481]}, "properties": {"id": 4876437064, "man_made": "surveillance", "surveillance:type": "camera", "data_source": "planet_osm"}}, {"type": "Feature", "geometry": {"type": "Point", "coordinates": [7.9509742, 48.4735865]}, "properties": {"id": 4961428516, "addr:city": "Offenburg", "addr:housenumber": "33", "addr:postcode": "77654", "addr:street": "Zeller Stra\u00dfe", "camera:mount": "wall", "camera:type": "fixed", "contact:webcam": "https://www.wunderground.com/webcams/WU_7536162/1/video.html?filename=current.mp4", "description": "Panorama-Wetterwebcam, betrieben vom Schiller-Gymnasium Offenburg", "ele": "163", "man_made": "surveillance", "surveillance": "outdoor", "surveillance:type": "camera", "surveillance:zone": "town", "website": "https://www.wunderground.com/webcams/WU_7536162/1/video.html?filename=current.mp4", "data_source": "planet_osm"}}, {"type": "Feature", "geometry": {"type": "Point", "coordinates": [7.7533981, 48.5781042]}, "properties": {"id": 5021599386, "camera:mount": "pole", "camera:type": "dome", "check_date": "2024-05-12", "man_made": "surveillance", "surveillance": "outdoor", "surveillance:type": "camera", "data_source": "planet_osm"}}, {"type": "Feature", "geometry": {"type": "Point", "coordinates": [7.7526367, 48.5777739]}, "properties": {"id": 5021604353, "camera:direction": "360", "camera:mount": "pole", "camera:type": "dome", "check_date": "2021-10-31", "man_made": "surveillance", "surveillance": "outdoor", "surveillance:type": "camera", "surveillance:zone": "people", "data_source": "planet_osm"}}, {"type": "Feature", "geometry": {"type": "Point", "coordinates": [7.7764673, 48.6018933]}, "properties": {"id": 5022520118, "camera:direction": "180", "camera:mount": "wall", "camera:type": "fixed", "description": "Cam\u00e9ra parking Cit\u00e9 universitaire de la Robertsau", "man_made": "surveillance", "surveillance": "outdoor", "surveillance:type": "camera", "surveillance:zone": "parking", "data_source": "planet_osm"}}, {"type": "Feature", "geometry": {"type": "Point", "coordinates": [7.7514204, 48.5720089]}, "properties": {"id": 5215097622, "man_made": "surveillance", "surveillance:type": "camera", "data_source": "planet_osm"}}, {"type": "Feature", "geometry": {"type": "Point", "coordinates": [7.9424894, 48.4806691]}, "properties": {"id": 5496382561, "camera:type": "dome", "description": "\u00dcberwachungskameras in beiden Aufz\u00fcgen", "man_made": "surveillance", "surveillance": "indoor", "surveillance:type": "camera", "data_source": "planet_osm"}}, {"type": "Feature", "geometry": {"type": "Point", "coordinates": [7.9420601, 48.4588292]}, "properties": {"id": 5498518234, "camera:direction": "350", "camera:mount": "wall", "camera:type": "fixed", "man_made": "surveillance", "surveillance": "indoor", "surveillance:type": "camera", "surveillance:zone": "North entrance", "data_source": "planet_osm"}}, {"type": "Feature", "geometry": {"type": "Point", "coordinates": [7.9420012, 48.4587396]}, "properties": {"id": 5498518235, "camera:direction": "180", "camera:mount": "wall", "camera:type": "fixed", "man_made": "surveillance", "surveillance": "indoor", "surveillance:type": "camera", "surveillance:zone": "south_entrance", "data_source": "planet_osm"}}, {"type": "Feature", "geometry": {"type": "Point", "coordinates": [7.9368634, 48.4663573]}, "properties": {"id": 5498518236, "camera:direction": "0", "camera:mount": "roof", "camera:type": "dome", "contact:webcam": "http://www.webcam-offenburg.de/welcome_inside.jsp", "man_made": "surveillance", "surveillance": "webcam", "surveillance:type": "camera", "surveillance:zone": "area", "data_source": "planet_osm"}}, {"type": "Feature", "geometry": {"type": "Point", "coordinates": [7.9368634, 48.4660594]}, "properties": {"id": 5498518237, "camera:direction": "180", "camera:mount": "roof", "camera:type": "dome", "contact:webcam": "http://www.webcam-offenburg.de/", "man_made": "surveillance", "surveillance": "webcam", "surveillance:type": "camera", "surveillance:zone": "area", "data_source": "planet_osm"}}, {"type": "Feature", "geometry": {"type": "Point", "coordinates": [7.942883, 48.4681661]}, "properties": {"id": 5500364585, "camera:mount": "ceiling", "camera:type": "dome", "description": "3-4 Cameras inside the restaurant", "man_made": "surveillance", "surveillance": "indoor", "surveillance:type": "camera", "surveillance:zone": "building", "data_source": "planet_osm"}}, {"type": "Feature", "geometry": {"type": "Point", "coordinates": [7.7810226, 48.678076]}, "properties": {"id": 5515347797, "description": "Hoerdt - Direction Strasbourg", "man_made": "surveillance", "surveillance": "traffic", "website": "http://oeil.dir-est.fr/faces/xhtml/cartographie/cartoImageFullScreen.xhtml?hoerdt=&amp;refreshTime=20", "data_source": "planet_osm"}}, {"type": "Feature", "geometry": {"type": "Point", "coordinates": [7.7595878, 48.5784837]}, "properties": {"id": 5751213761, "camera:type": "dome", "check_date": "2023-01-20", "man_made": "surveillance", "surveillance": "public", "surveillance:type": "camera", "surveillance:zone": "town", "data_source": "planet_osm"}}, {"type": "Feature", "geometry": {"type": "Point", "coordinates": [8.0798885, 48.6285513]}, "properties": {"id": 6036639012, "camera:direction": "180", "camera:mount": "pole", "camera:type": "fixed", "man_made": "surveillance", "surveillance": "outdoor", "surveillance:type": "camera", "surveillance:zone": "building", "data_source": "planet_osm"}}, {"type": "Feature", "geometry": {"type": "Point", "coordinates": [8.0275614, 48.500956]}, "properties": {"id": 6138803719, "camera:direction": "270", "camera:type": "fixed", "contact:webcam": "https://www.schloss-staufenberg.de/en/info-service/weather-webcam/", "man_made": "surveillance", "surveillance": "webcam", "surveillance:type": "camera", "surveillance:zone": "area", "data_source": "planet_osm"}}, {"type": "Feature", "geometry": {"type": "Point", "coordinates": [7.941599, 48.469671]}, "properties": {"id": 6140082200, "camera:direction": "45", "camera:mount": "building", "camera:type": "fixed", "contact:webcam": "http://marktplatzcam.bo.de/", "man_made": "surveillance", "name": "Marktplatzcam Offenburg", "surveillance": "webcam", "surveillance:type": "camera", "surveillance:zone": "town", "data_source": "planet_osm"}}, {"type": "Feature", "geometry": {"type": "Point", "coordinates": [8.0510856, 48.6323234]}, "properties": {"id": 6388699237, "camera:direction": "35", "camera:mount": "wall", "camera:type": "fixed", "check_date": "2023-05-17", "man_made": "surveillance", "surveillance": "outdoor", "surveillance:type": "camera", "surveillance:zone": "entrance", "data_source": "planet_osm"}}, {"type": "Feature", "geometry": {"type": "Point", "coordinates": [8.0511792, 48.6323508]}, "properties": {"id": 6388699238, "camera:direction": "300", "camera:mount": "wall", "camera:type": "fixed", "check_date": "2023-05-17", "man_made": "surveillance", "surveillance": "outdoor", "surveillance:type": "camera", "surveillance:zone": "area", "data_source": "planet_osm"}}, {"type": "Feature", "geometry": {"type": "Point", "coordinates": [8.0511714, 48.6321751]}, "properties": {"id": 6388699239, "camera:direction": "300", "camera:mount": "wall", "camera:type": "fixed", "check_date": "2023-05-17", "man_made": "surveillance", "surveillance": "outdoor", "surveillance:type": "camera", "surveillance:zone": "building", "data_source": "planet_osm"}}, {"type": "Feature", "geometry": {"type": "Point", "coordinates": [8.0511779, 48.6321655]}, "properties": {"id": 6388699240, "camera:direction": "190", "camera:mount": "wall", "camera:type": "fixed", "check_date": "2023-05-17", "man_made": "surveillance", "surveillance": "outdoor", "surveillance:type": "camera", "surveillance:zone": "building", "data_source": "planet_osm"}}, {"type": "Feature", "geometry": {"type": "Point", "coordinates": [8.0515733, 48.6315747]}, "properties": {"id": 6388699242, "camera:direction": "300", "camera:mount": "wall", "camera:type": "fixed", "check_date": "2023-05-17", "man_made": "surveillance", "surveillance": "outdoor", "surveillance:type": "camera", "surveillance:zone": "building", "data_source": "planet_osm"}}, {"type": "Feature", "geometry": {"type": "Point", "coordinates": [8.0515791, 48.6315661]}, "properties": {"id": 6388699243, "camera:direction": "190", "camera:mount": "wall", "camera:type": "fixed", "check_date": "2023-05-17", "man_made": "surveillance", "surveillance": "outdoor", "surveillance:type": "camera", "surveillance:zone": "building", "data_source": "planet_osm"}}, {"type": "Feature", "geometry": {"type": "Point", "coordinates": [8.0520896, 48.6317269]}, "properties": {"id": 6388699246, "camera:direction": "140", "camera:mount": "wall", "camera:type": "fixed", "check_date": "2023-05-17", "man_made": "surveillance", "surveillance": "outdoor", "surveillance:type": "camera", "surveillance:zone": "building", "data_source": "planet_osm"}}, {"type": "Feature", "geometry": {"type": "Point", "coordinates": [8.0520865, 48.6317316]}, "properties": {"id": 6388699247, "camera:direction": "350", "camera:mount": "wall", "camera:type": "fixed", "check_date": "2023-05-17", "man_made": "surveillance", "surveillance": "outdoor", "surveillance:type": "camera", "surveillance:zone": "building", "data_source": "planet_osm"}}, {"type": "Feature", "geometry": {"type": "Point", "coordinates": [8.0517887, 48.6321765]}, "properties": {"id": 6388699248, "camera:direction": "135", "camera:mount": "wall", "camera:type": "fixed", "check_date": "2023-05-17", "man_made": "surveillance", "surveillance": "outdoor", "surveillance:type": "camera", "surveillance:zone": "building", "data_source": "planet_osm"}}, {"type": "Feature", "geometry": {"type": "Point", "coordinates": [8.0517848, 48.6321823]}, "properties": {"id": 6388699249, "camera:direction": "340", "camera:mount": "wall", "camera:type": "fixed", "check_date": "2023-05-17", "man_made": "surveillance", "surveillance": "outdoor", "surveillance:type": "camera", "surveillance:zone": "traffic", "data_source": "planet_osm"}}, {"type": "Feature", "geometry": {"type": "Point", "coordinates": [8.0516311, 48.6323715]}, "properties": {"id": 6388699250, "camera:direction": "300", "camera:mount": "wall", "camera:type": "fixed", "check_date": "2023-05-17", "man_made": "surveillance", "surveillance": "outdoor", "surveillance:type": "camera", "surveillance:zone": "area", "data_source": "planet_osm"}}, {"type": "Feature", "geometry": {"type": "Point", "coordinates": [8.0511953, 48.6323452]}, "properties": {"id": 6388699251, "camera:direction": "90", "camera:mount": "wall", "camera:type": "fixed", "check_date": "2023-05-17", "man_made": "surveillance", "surveillance": "outdoor", "surveillance:type": "camera", "surveillance:zone": "building", "data_source": "planet_osm"}}, {"type": "Feature", "geometry": {"type": "Point", "coordinates": [7.7559195, 48.6056525]}, "properties": {"id": 6406160418, "camera:type": "dome", "man_made": "surveillance", "name": "Angle des rues Glaci\u00e8re et du Soleil (Schiltigheim)", "source": "survey", "support": "street_lamp", "surveillance": "public", "survey:date": "2019", "data_source": "planet_osm"}}, {"type": "Feature", "geometry": {"type": "Point", "coordinates": [7.7611394, 48.5856027]}, "properties": {"id": 6465095852, "man_made": "surveillance", "data_source": "planet_osm"}}, {"type": "Feature", "geometry": {"type": "Point", "coordinates": [7.7639794, 48.5578061]}, "properties": {"id": 6593410439, "camera:mount": "pole", "camera:type": "dome", "ele": "4", "man_made": "surveillance", "surveillance": "outdoor", "surveillance:type": "camera", "surveillance:zone": "parking", "data_source": "planet_osm"}}, {"type": "Feature", "geometry": {"type": "Point", "coordinates": [7.7640661, 48.5578071]}, "properties": {"id": 6593410440, "camera:type": "dome", "ele": "4", "man_made": "surveillance", "surveillance": "outdoor", "surveillance:type": "camera", "surveillance:zone": "area", "data_source": "planet_osm"}}, {"type": "Feature", "geometry": {"type": "Point", "coordinates": [7.7635921, 48.557117]}, "properties": {"id": 6593410441, "camera:direction": "25", "camera:mount": "wall", "camera:type": "dome", "ele": "3", "man_made": "surveillance", "surveillance": "indoor", "surveillance:type": "camera", "surveillance:zone": "public", "data_source": "planet_osm"}}, {"type": "Feature", "geometry": {"type": "Point", "coordinates": [7.7639247, 48.5571738]}, "properties": {"id": 6593410442, "camera:direction": "220", "camera:mount": "wall", "camera:type": "dome", "ele": "3", "man_made": "surveillance", "surveillance": "public", "surveillance:type": "camera", "surveillance:zone": "public", "data_source": "planet_osm"}}, {"type": "Feature", "geometry": {"type": "Point", "coordinates": [7.738063, 48.5742073]}, "properties": {"id": 6593465061, "camera:direction": "230", "camera:mount": "gantry", "camera:type": "dome", "man_made": "surveillance", "surveillance:type": "camera", "surveillance:zone": "public", "data_source": "planet_osm"}}, {"type": "Feature", "geometry": {"type": "Point", "coordinates": [7.7368405, 48.5719636]}, "properties": {"id": 6594100984, "camera:mount": "pole", "camera:type": "dome", "ele": "3", "man_made": "surveillance", "surveillance": "traffic", "surveillance:type": "camera", "data_source": "planet_osm"}}, {"type": "Feature", "geometry": {"type": "Point", "coordinates": [7.7604357, 48.574085]}, "properties": {"id": 6596551324, "camera:direction": "320", "camera:mount": "wall", "camera:type": "fixed", "man_made": "surveillance", "surveillance": "public", "surveillance:type": "camera", "surveillance:zone": "shop", "data_source": "planet_osm"}}, {"type": "Feature", "geometry": {"type": "Point", "coordinates": [7.759987, 48.5741225]}, "properties": {"id": 6596551327, "camera:direction": "45", "camera:mount": "wall", "camera:type": "fixed", "man_made": "surveillance", "surveillance": "public", "surveillance:type": "camera", "surveillance:zone": "shop", "data_source": "planet_osm"}}, {"type": "Feature", "geometry": {"type": "Point", "coordinates": [7.7643934, 48.5572999]}, "properties": {"id": 6600226552, "camera:type": "dome", "man_made": "surveillance", "surveillance:type": "camera", "data_source": "planet_osm"}}, {"type": "Feature", "geometry": {"type": "Point", "coordinates": [7.7632829, 48.5576354]}, "properties": {"id": 6600226553, "ele": "6", "man_made": "surveillance", "surveillance:type": "camera", "data_source": "planet_osm"}}, {"type": "Feature", "geometry": {"type": "Point", "coordinates": [7.7636638, 48.55692]}, "properties": {"id": 6600226554, "ele": "6", "man_made": "surveillance", "surveillance:type": "camera", "data_source": "planet_osm"}}, {"type": "Feature", "geometry": {"type": "Point", "coordinates": [7.7375914, 48.5731476]}, "properties": {"id": 6618486126, "camera:direction": "15", "camera:type": "dome", "man_made": "surveillance", "surveillance": "outdoor", "surveillance:type": "camera", "data_source": "planet_osm"}}, {"type": "Feature", "geometry": {"type": "Point", "coordinates": [7.7375893, 48.5731248]}, "properties": {"id": 6618486127, "camera:direction": "180", "camera:type": "dome", "man_made": "surveillance", "surveillance": "public", "surveillance:type": "camera", "data_source": "planet_osm"}}, {"type": "Feature", "geometry": {"type": "Point", "coordinates": [7.7563162, 48.5819981]}, "properties": {"id": 6815259334, "camera:mount": "pole", "camera:type": "dome", "man_made": "surveillance", "surveillance": "public", "surveillance:type": "camera", "surveillance:zone": "town", "data_source": "planet_osm"}}, {"type": "Feature", "geometry": {"type": "Point", "coordinates": [7.7378682, 48.6109837]}, "properties": {"id": 6954981476, "camera:mount": "pole", "camera:type": "panning", "man_made": "surveillance", "surveillance": "outdoor", "surveillance:type": "camera", "surveillance:zone": "town", "data_source": "planet_osm"}}, {"type": "Feature", "geometry": {"type": "Point", "coordinates": [7.7510616, 48.5908729]}, "properties": {"id": 7074605844, "camera:direction": "10", "camera:mount": "building", "camera:type": "fixed", "check_date": "2024-03-26", "man_made": "surveillance", "surveillance": "outdoor", "surveillance:type": "camera", "surveillance:zone": "street", "data_source": "planet_osm"}}, {"type": "Feature", "geometry": {"type": "Point", "coordinates": [7.7509955, 48.5910834]}, "properties": {"id": 7074605845, "camera:direction": "140", "camera:mount": "building", "camera:type": "fixed", "check_date": "2024-03-26", "man_made": "surveillance", "surveillance": "outdoor", "surveillance:type": "camera", "surveillance:zone": "street", "data_source": "planet_osm"}}, {"type": "Feature", "geometry": {"type": "Point", "coordinates": [7.7510406, 48.5908526]}, "properties": {"id": 7074605846, "camera:direction": "170", "camera:mount": "wall", "camera:type": "fixed", "check_date": "2024-03-26", "man_made": "surveillance", "surveillance": "outdoor", "surveillance:type": "camera", "surveillance:zone": "entrance", "data_source": "planet_osm"}}, {"type": "Feature", "geometry": {"type": "Point", "coordinates": [7.7510465, 48.5908541]}, "properties": {"id": 7074605847, "camera:direction": "140", "camera:mount": "wall", "camera:type": "fixed", "check_date": "2024-03-26", "man_made": "surveillance", "surveillance": "outdoor", "surveillance:type": "camera", "surveillance:zone": "entrance", "data_source": "planet_osm"}}, {"type": "Feature", "geometry": {"type": "Point", "coordinates": [7.7510134, 48.5908487]}, "properties": {"id": 7074605848, "camera:direction": "140", "camera:mount": "wall", "camera:type": "fixed", "check_date": "2024-03-26", "man_made": "surveillance", "surveillance": "outdoor", "surveillance:type": "camera", "surveillance:zone": "entrance", "data_source": "planet_osm"}}, {"type": "Feature", "geometry": {"type": "Point", "coordinates": [7.7509661, 48.5908135]}, "properties": {"id": 7074605849, "camera:mount": "wall", "camera:type": "dome", "check_date": "2024-03-26", "man_made": "surveillance", "surveillance": "outdoor", "surveillance:type": "camera", "surveillance:zone": "entrance", "data_source": "planet_osm"}}, {"type": "Feature", "geometry": {"type": "Point", "coordinates": [7.7509765, 48.5907724]}, "properties": {"id": 7074605850, "camera:direction": "10", "camera:mount": "wall", "camera:type": "fixed", "check_date": "2024-03-26", "man_made": "surveillance", "surveillance": "outdoor", "surveillance:type": "camera", "surveillance:zone": "entrance", "data_source": "planet_osm"}}, {"type": "Feature", "geometry": {"type": "Point", "coordinates": [7.7509654, 48.5907637]}, "properties": {"id": 7074605851, "camera:direction": "230", "camera:mount": "wall", "camera:type": "fixed", "check_date": "2024-03-26", "man_made": "surveillance", "surveillance": "outdoor", "surveillance:type": "camera", "surveillance:zone": "street", "data_source": "planet_osm"}}, {"type": "Feature", "geometry": {"type": "Point", "coordinates": [7.7506459, 48.5907273]},