{"type": "FeatureCollection", "features": [{"type": "Feature", "geometry": {"type": "Point", "coordinates": [6.0996323, 50.4937273]}, "properties": {"id": 8319576565, "camera:direction": "35", "camera:type": "fixed", "contact:webcam": "https://www.meteobelgium.net/webcam/botrange/photo_mb.jpg", "contact:website": "https://www.meteobelgie.be/waarnemingen/reele-tijd/webcams", "man_made": "surveillance", "name": "Webcam Botrange", "surveillance": "public", "surveillance:type": "camera", "data_source": "planet_osm"}}, {"type": "Feature", "geometry": {"type": "Point", "coordinates": [6.0800009, 50.4591173]}, "properties": {"id": 8321971225, "camera:direction": "120", "camera:type": "fixed", "contact:webcam": "https://www.meteobelgium.net/webcam/xhoffraix/photo_mb.jpg", "contact:website": "https://www.meteobelgie.be/waarnemingen/reele-tijd/webcams", "man_made": "surveillance", "name": "Webcam Xhoffraix", "surveillance": "public", "surveillance:type": "camera", "data_source": "planet_osm"}}, {"type": "Feature", "geometry": {"type": "Point", "coordinates": [6.2612468, 50.423586]}, "properties": {"id": 8328935060, "camera:direction": "20", "camera:type": "fixed", "contact:webcam": "https://webcam.wirtzfeld.be/webcam/wirtzfeld-new.jpg", "contact:website": "https://www.wirtzfeld.be/webcams/", "man_made": "surveillance", "name": "Webcam Wirtzfeld Valley (Kerkje)", "surveillance": "public", "surveillance:type": "camera", "data_source": "planet_osm"}}, {"type": "Feature", "geometry": {"type": "Point", "coordinates": [6.2756637, 50.4142445]}, "properties": {"id": 8328957921, "camera:direction": "45", "camera:type": "fixed", "contact:webcam": "https://www.feuervogel.be/Cam/feuervogel.jpg", "contact:website": "https://www.feuervogel.be/", "man_made": "surveillance", "name": "Webcam B\u00fcllingen (Airport Feuervogel)", "surveillance": "public", "surveillance:type": "camera", "data_source": "planet_osm"}}, {"type": "Feature", "geometry": {"type": "Point", "coordinates": [6.2154025, 50.4274718]}, "properties": {"id": 8331271746, "camera:direction": "358", "camera:type": "fixed", "contact:webcam": "https://www.beverlyweekend.com/cam/beverlyweekend.jpg", "contact:website": "https://www.beverlyweekend.com/webcam/", "man_made": "surveillance", "name": "Webcam B\u00fctgenbacher See", "surveillance": "public", "surveillance:type": "camera", "data_source": "planet_osm"}}, {"type": "Feature", "geometry": {"type": "Point", "coordinates": [6.0734275, 50.5107217]}, "properties": {"id": 8349304158, "camera:direction": "180", "camera:type": "fixed", "contact:webcam": "https://www.meteo.be/services/web2016/getWebcamImage.php?target=MontRigi1&lang=nl", "contact:website": "https://www.meteo.be/nl/weer/waarnemingen/webcams", "man_made": "surveillance", "name": "Webcam Mont Rigi", "surveillance": "public", "surveillance:type": "camera", "data_source": "planet_osm"}}, {"type": "Feature", "geometry": {"type": "Point", "coordinates": [6.0733375, 50.5108626]}, "properties": {"id": 8349304159, "camera:type": "fixed", "contact:webcam": "https://www.meteo.be/services/web2016/getWebcamImage.php?target=MontRigi2&lang=nl", "contact:website": "https://www.meteo.be/nl/weer/waarnemingen/webcams", "man_made": "surveillance", "name": "Snowcam Mont Rigi", "surveillance": "public", "surveillance:type": "camera", "data_source": "planet_osm"}}, {"type": "Feature", "geometry": {"type": "Point", "coordinates": [6.019899, 50.3229535]}, "properties": {"id": 8378788938, "camera:direction": "330", "camera:type": "fixed", "contact:webcam": "https://bmcb.club/webcam/recht.php", "contact:website": "https://bmcb.club/index.php?page=webcam.php", "man_made": "surveillance", "name": "Webcam Recht-Huppertzberg", "surveillance": "public", "surveillance:type": "camera", "data_source": "planet_osm"}}], "networks": []}