{"type": "FeatureCollection", "features": [{"type": "Feature", "geometry": {"type": "Point", "coordinates": [-88.3394154, 41.7624744]}, "properties": {"camera:mount": "wall", "camera:type": "fixed", "man_made": "surveillance", "name": "Cozy Massage Spa", "surveillance": "outdoor", "surveillance:type": "camera", "surveillance:zone": "entrance"}}, {"type": "Feature", "geometry": {"type": "Point", "coordinates": [-88.3218745, 41.7604445]}, "properties": {"camera:mount": "wall", "camera:type": "fixed", "man_made": "surveillance", "name": "McDonald's", "operator": "McDonald's", "operator:wikidata": "Q38076", "surveillance": "outdoor", "surveillance:type": "camera", "surveillance:zone": "parking"}}, {"type": "Feature", "geometry": {"type": "Point", "coordinates": [-88.3194603, 41.7587086]}, "properties": {"camera:direction": "45", "camera:mount": "wall", "camera:type": "dome", "man_made": "surveillance", "name": "Aurora Tap House", "surveillance": "outdoor", "surveillance:type": "camera", "surveillance:zone": "street"}}, {"type": "Feature", "geometry": {"type": "Point", "coordinates": [-88.3186858, 41.7601295]}, "properties": {"camera:mount": "wall", "camera:type": "fixed", "man_made": "surveillance", "name": "Hairy Beast Dog Parlor", "surveillance": "outdoor", "surveillance:type": "camera", "surveillance:zone": "parking"}}, {"type": "Feature", "geometry": {"type": "Point", "coordinates": [-88.3206096, 41.7580709]}, "properties": {"camera:mount": "traffic_signals", "camera:type": "dome", "man_made": "surveillance", "name": "Western Corner Of Lake & Benton", "surveillance": "outdoor", "surveillance:type": "camera", "surveillance:zone": "parking"}}, {"type": "Feature", "geometry": {"type": "Point", "coordinates": [-88.3235408, 41.7610402]}, "properties": {"camera:mount": "wall", "camera:type": "dome", "man_made": "surveillance", "name": "Canton Commercial Property For Sale", "surveillance": "outdoor", "surveillance:type": "camera", "surveillance:zone": "street"}}, {"type": "Feature", "geometry": {"type": "Point", "coordinates": [-88.3192464, 41.7588398]}, "properties": {"camera:mount": "wall", "camera:type": "dome", "man_made": "surveillance", "name": "Aurora Tap House", "surveillance": "outdoor", "surveillance:type": "camera", "surveillance:zone": "street"}}, {"type": "Feature", "geometry": {"type": "Point", "coordinates": [-88.3210503, 41.7603811]}, "properties": {"camera:mount": "wall", "camera:type": "fixed", "man_made": "surveillance", "name": "Shell", "operator": "Shell", "operator:wikidata": "Q154950", "surveillance": "outdoor", "surveillance:type": "camera", "surveillance:zone": "parking"}}, {"type": "Feature", "geometry": {"type": "Point", "coordinates": [-88.3357282, 41.762154]}, "properties": {"camera:mount": "wall", "camera:type": "fixed", "man_made": "surveillance", "name": "Porro Neirmann Law Group", "surveillance": "outdoor", "surveillance:type": "camera", "surveillance:zone": "entrance"}}, {"type": "Feature", "geometry": {"type": "Point", "coordinates": [-88.3358429, 41.7623635]}, "properties": {"camera:mount": "wall", "camera:type": "fixed", "man_made": "surveillance", "name": "Porro Neirmann Law Group", "surveillance": "outdoor", "surveillance:type": "camera", "surveillance:zone": "parking"}}, {"type": "Feature", "geometry": {"type": "Point", "coordinates": [-88.3223059, 41.7604807]}, "properties": {"camera:mount": "ceiling", "camera:type": "fixed", "man_made": "surveillance", "name": "Strip Mall", "surveillance": "outdoor", "surveillance:type": "camera", "surveillance:zone": "entrance"}}, {"type": "Feature", "geometry": {"type": "Point", "coordinates": [-88.3188043, 41.7591424]}, "properties": {"camera:mount": "wall", "camera:type": "fixed", "man_made": "surveillance", "name": "Old Second National Bank", "surveillance": "indoor", "surveillance:type": "camera", "surveillance:zone": "bank"}}, {"type": "Feature", "geometry": {"type": "Point", "coordinates": [-88.3181911, 41.7599668]}, "properties": {"camera:mount": "wall", "camera:type": "fixed", "man_made": "surveillance", "name": "Gentlemen\u2019s Parlor", "surveillance": "outdoor", "surveillance:type": "camera", "surveillance:zone": "street"}}, {"type": "Feature", "geometry": {"type": "Point", "coordinates": [-88.3202148, 41.7602417]}, "properties": {"camera:mount": "wall", "camera:type": "fixed", "man_made": "surveillance", "name": "Mobil", "surveillance": "outdoor", "surveillance:type": "camera", "surveillance:zone": "parking"}}, {"type": "Feature", "geometry": {"type": "Point", "coordinates": [-88.3436618, 41.7627171]}, "properties": {"camera:mount": "traffic_signals", "camera:type": "dome", "man_made": "surveillance", "name": "NW Corner of Galena & Commonwealth", "surveillance": "outdoor", "surveillance:type": "camera", "surveillance:zone": "area"}}, {"type": "Feature", "geometry": {"type": "Point", "coordinates": [-88.3191232, 41.7602111]}, "properties": {"camera:mount": "ceiling", "camera:type": "dome", "man_made": "surveillance", "name": "PQW Wheels And Tires", "surveillance": "outdoor", "surveillance:type": "camera", "surveillance:zone": "street"}}, {"type": "Feature", "geometry": {"type": "Point", "coordinates": [-88.3191772, 41.760234]}, "properties": {"camera:mount": "wall", "camera:type": "fixed", "man_made": "surveillance", "name": "PQW Wheels And Tires", "surveillance": "indoor", "surveillance:type": "camera", "surveillance:zone": "street"}}, {"type": "Feature", "geometry": {"type": "Point", "coordinates": [-88.3396579, 41.7624974]}, "properties": {"camera:mount": "wall", "camera:type": "fixed", "man_made": "surveillance", "name": "Tacos y Burritos Jaliscos", "surveillance": "outdoor", "surveillance:type": "camera", "surveillance:zone": "parking"}}, {"type": "Feature", "geometry": {"type": "Point", "coordinates": [-88.3189426, 41.7601368]}, "properties": {"camera:mount": "wall", "camera:type": "fixed", "man_made": "surveillance", "name": "Carniceria San Lorenzo", "surveillance": "outdoor", "surveillance:type": "camera", "surveillance:zone": "street"}}, {"type": "Feature", "geometry": {"type": "Point", "coordinates": [-88.3190313, 41.7598928]}, "properties": {"camera:mount": "wall", "camera:type": "dome", "man_made": "surveillance", "name": "NAPA Auto Parts", "surveillance": "outdoor", "surveillance:type": "camera", "surveillance:zone": "parking"}}, {"type": "Feature", "geometry": {"type": "Point", "coordinates": [-88.3201194, 41.7573555]}, "properties": {"camera:mount": "wall", "camera:type": "dome", "man_made": "surveillance", "name": "Aurora Public Library", "surveillance": "outdoor", "surveillance:type": "camera", "surveillance:zone": "entrance"}}, {"type": "Feature", "geometry": {"type": "Point", "coordinates": [-88.3585365, 41.6857678]}, "properties": {"camera:mount": "pole", "camera:type": "fixed", "direction": "160", "man_made": "surveillance", "surveillance": "traffic", "surveillance:type": "ALPR", "surveillance:zone": "traffic"}}, {"type": "Feature", "geometry": {"type": "Point", "coordinates": [-88.31976, 41.7188102]}, "properties": {"camera:mount": "pole", "camera:type": "fixed", "direction": "175", "man_made": "surveillance", "manufacturer": "Flock Safety", "manufacturer:wikidata": "Q108485435", "surveillance": "public", "surveillance:type": "ALPR", "surveillance:zone": "traffic"}}, {"type": "Feature", "geometry": {"type": "Point", "coordinates": [-88.4433983, 41.7617103]}, "properties": {"camera:mount": "pole", "camera:type": "fixed", "direction": "245", "image": "https://commons.wikimedia.org/wiki/File:Flock_ALPR_camera.jpg", "man_made": "surveillance", "manufacturer": "Flock Safety", "manufacturer:wikidata": "Q108485435", "surveillance": "traffic", "surveillance:type": "ALPR", "surveillance:zone": "traffic"}}, {"type": "Feature", "geometry": {"type": "Point", "coordinates": [-88.3184536, 41.7102776]}, "properties": {"camera:type": "fixed", "direction": "130", "man_made": "surveillance", "manufacturer": "Flock Safety", "manufacturer:wikidata": "Q108485435", "surveillance": "traffic", "surveillance:type": "ALPR", "surveillance:zone": "traffic"}}, {"type": "Feature", "geometry": {"type": "Point", "coordinates": [-88.3740772, 41.765137]}, "properties": {"camera:mount": "street_lamp", "camera:type": "fixed", "direction": "140", "image": "https://commons.wikimedia.org/wiki/File:Flock_Galena_Eastbound.jpg", "man_made": "surveillance", "manufacturer": "Flock Safety", "manufacturer:wikidata": "Q108485435", "surveillance": "traffic", "surveillance:type": "ALPR", "surveillance:zone": "traffic"}}, {"type": "Feature", "geometry": {"type": "Point", "coordinates": [-88.3719745, 41.7649826]}, "properties": {"camera:mount": "street_lamp", "camera:type": "fixed", "direction": "320", "image": "https://commons.wikimedia.org/wiki/File:Flock_Galena_Westbound.jpg", "man_made": "surveillance", "manufacturer": "Flock Safety", "manufacturer:wikidata": "Q108485435", "surveillance": "traffic", "surveillance:type": "ALPR", "surveillance:zone": "traffic"}}, {"type": "Feature", "geometry": {"type": "Point", "coordinates": [-88.3808293, 41.7011115]}, "properties": {"camera:type": "fixed", "direction": "130", "man_made": "surveillance", "manufacturer": "Flock Safety", "manufacturer:wikidata": "Q108485435", "surveillance:type": "ALPR"}}, {"type": "Feature", "geometry": {"type": "Point", "coordinates": [-88.3015764, 41.7545387]}, "properties": {"camera:type": "fixed", "direction": "291", "man_made": "surveillance", "manufacturer": "Motorola Solutions", "manufacturer:wikidata": "Q634815", "surveillance": "public", "surveillance:type": "ALPR", "surveillance:zone": "traffic"}}, {"type": "Feature", "geometry": {"type": "Point", "coordinates": [-88.2911603, 41.753946]}, "properties": {"camera:type": "fixed", "direction": "167", "man_made": "surveillance", "manufacturer": "Motorola Solutions", "manufacturer:wikidata": "Q634815", "surveillance": "public", "surveillance:type": "ALPR", "surveillance:zone": "traffic"}}, {"type": "Feature", "geometry": {"type": "Point", "coordinates": [-88.2818294, 41.75647]}, "properties": {"camera:type": "fixed", "direction": "233", "man_made": "surveillance", "manufacturer": "Motorola Solutions", "manufacturer:wikidata": "Q634815", "surveillance": "public", "surveillance:type": "ALPR", "surveillance:zone": "traffic"}}], "networks": []}