{"type": "FeatureCollection", "features": [{"type": "Feature", "geometry": {"type": "Point", "coordinates": [8.4236538, 47.8956383]}, "properties": {"id": 3152759483, "camera:mount": "pole", "camera:type": "dome", "man_made": "surveillance", "surveillance": "public", "surveillance:type": "camera", "surveillance:zone": "street", "data_source": "planet_osm"}}, {"type": "Feature", "geometry": {"type": "Point", "coordinates": [8.1326444, 47.8338308]}, "properties": {"id": 5101414092, "camera:type": "fixed", "contact:webcam": "http://auha-v.dyndns.org:81/mjpg/video.mjpg", "man_made": "surveillance", "surveillance": "public", "surveillance:type": "camera", "website": "http://www.auerhahn.net/wellnesshotel-schwarzwald/hotel/web-cam/", "data_source": "planet_osm"}}, {"type": "Feature", "geometry": {"type": "Point", "coordinates": [8.179053, 47.8139601]}, "properties": {"id": 8013195642, "camera:direction": "281", "camera:type": "fixed", "contact:webcam:hd": "http://webcam.land-in-sicht.com/gemeinde_schluchsee/schluchsee-aquafun1280.jpg", "contact:webcam:sd": "http://webcam.land-in-sicht.com/gemeinde_schluchsee/schluchsee-aquafun640.jpg", "contact:website": "http://www.gemeinde-schluchsee.de/Schluchsee/Webcams", "man_made": "surveillance", "surveillance": "public", "surveillance:type": "camera", "data_source": "planet_osm"}}, {"type": "Feature", "geometry": {"type": "Point", "coordinates": [8.1084733, 47.8538627]}, "properties": {"id": 8062728100, "camera:direction": "25", "camera:type": "fixed", "contact:webcam": "http://webcam.land-in-sicht.com/feldberg/webcam-altglashuetten1280.jpg", "contact:website": "https://www.liftverbund-feldberg.de/Altglashuetten", "man_made": "surveillance", "name": "Altglash\u00fctten (Dorfansicht)", "surveillance": "public", "surveillance:type": "camera", "data_source": "planet_osm"}}, {"type": "Feature", "geometry": {"type": "Point", "coordinates": [8.108509, 47.8538329]}, "properties": {"id": 8062728101, "camera:direction": "175", "camera:type": "fixed", "contact:webcam": "http://webcam.land-in-sicht.com/feldberg/webcam-schwarzenbachlift-talstation.jpg", "contact:website": "https://www.liftverbund-feldberg.de/Altglashuetten", "man_made": "surveillance", "name": "Altglash\u00fctten (Schwarzenbachliftansicht)", "surveillance": "public", "surveillance:type": "camera", "data_source": "planet_osm"}}, {"type": "Feature", "geometry": {"type": "Point", "coordinates": [8.0938098, 47.8680318]}, "properties": {"id": 8130319484, "camera:direction": "50", "camera:type": "fixed", "contact:webcam": "http://webcams.axelklein.info/axelklein_baerental.jpg", "contact:website": "http://webcams.axelklein.info/", "contact:website:2": "https://www.liftverbund-feldberg.de/Altglashuetten", "man_made": "surveillance", "name": "Feldberg (B\u00e4rental)", "surveillance": "public", "surveillance:type": "camera", "data_source": "planet_osm"}}], "networks": []}