{"type": "FeatureCollection", "features": [{"type": "Feature", "geometry": {"type": "Point", "coordinates": [12.0648144, 61.1186935]}, "properties": {"id": 1417673836, "fixme": "position", "man_made": "surveillance", "name": "Midtskogberget", "operator": "Statens vegvesen", "ref": "109115", "source": "Statens vegvesen", "source:url": "http://webkamera.vegvesen.no/metadata", "surveillance": "webcam", "url": "http://webkamera.vegvesen.no/kamera?id=109115", "data_source": "planet_osm"}}, {"type": "Feature", "geometry": {"type": "Point", "coordinates": [11.3020271, 59.3757216]}, "properties": {"id": 1417673865, "man_made": "surveillance", "name": "Gautestad", "operator": "Statens vegvesen", "ref": "109800", "source": "Statens vegvesen", "source:url": "http://webkamera.vegvesen.no/metadata", "surveillance": "webcam", "url": "http://webkamera.vegvesen.no/kamera?id=109800", "data_source": "planet_osm"}}, {"type": "Feature", "geometry": {"type": "Point", "coordinates": [11.2509174, 60.5546939]}, "properties": {"id": 1417673943, "man_made": "surveillance", "name": "E6 Espa", "note:no": "Retning mot Oslo", "operator": "Statens vegvesen", "ref": "127363", "source": "Statens vegvesen", "source:url": "http://webkamera.vegvesen.no/metadata", "surveillance": "webcam", "url": "http://webkamera.vegvesen.no/kamera?id=127363", "data_source": "planet_osm"}}, {"type": "Feature", "geometry": {"type": "Point", "coordinates": [11.272228, 60.703044]}, "properties": {"id": 1417674534, "fixme": "position", "man_made": "surveillance", "name": "Kolomoen", "note:no": "Krysset E6/Rv3", "operator": "Statens vegvesen", "ref": "110128", "source": "Statens vegvesen", "source:url": "http://webkamera.vegvesen.no/metadata", "surveillance": "webcam", "url": "http://webkamera.vegvesen.no/kamera?id=110128", "data_source": "planet_osm"}}, {"type": "Feature", "geometry": {"type": "Point", "coordinates": [11.6721983, 59.301183]}, "properties": {"id": 1417674541, "camera:direction": "193", "camera:mount": "pole", "camera:type": "fixed", "contact:webcam": "http://webkamera.vegvesen.no/kamera?id=109117", "man_made": "surveillance", "name": "Fv21 Str\u00f8msfoss (117 moh)", "operator": "Statens vegvesen", "ref": "109117", "source": "Statens vegvesen", "source:url": "http://webkamera.vegvesen.no/metadata", "surveillance": "webcam", "surveillance:type": "camera", "surveillance:zone": "traffic", "data_source": "planet_osm"}}, {"type": "Feature", "geometry": {"type": "Point", "coordinates": [11.4900789, 60.9571855]}, "properties": {"id": 1417674589, "man_made": "surveillance", "name": "Svingen", "operator": "Statens vegvesen", "ref": "113253", "source": "Statens vegvesen", "source:url": "http://webkamera.vegvesen.no/metadata", "surveillance": "webcam", "url": "http://webkamera.vegvesen.no/kamera?id=113253", "data_source": "planet_osm"}}, {"type": "Feature", "geometry": {"type": "Point", "coordinates": [11.540705, 58.990221]}, "properties": {"id": 1417674608, "fixme": "position", "man_made": "surveillance", "name": "Prestebakke", "operator": "Statens vegvesen", "ref": "110917", "source": "Statens vegvesen", "source:url": "http://webkamera.vegvesen.no/metadata", "surveillance": "webcam", "url": "http://webkamera.vegvesen.no/kamera?id=110917", "data_source": "planet_osm"}}, {"type": "Feature", "geometry": {"type": "Point", "coordinates": [11.3631272, 61.1217687]}, "properties": {"id": 1417674622, "man_made": "surveillance", "name": "Rena", "note:no": "Retning mot Rena", "operator": "Statens vegvesen", "ref": "185544", "source": "Statens vegvesen", "source:url": "http://webkamera.vegvesen.no/metadata", "surveillance": "webcam", "url": "http://webkamera.vegvesen.no/kamera?id=185544", "data_source": "planet_osm"}}, {"type": "Feature", "geometry": {"type": "Point", "coordinates": [11.45519, 59.54564]}, "properties": {"id": 1417674833, "fixme": "position", "man_made": "surveillance", "name": "Melleby", "operator": "Statens vegvesen", "ref": "203820", "source": "Statens vegvesen", "source:url": "http://webkamera.vegvesen.no/metadata", "surveillance": "webcam", "url": "http://webkamera.vegvesen.no/kamera?id=203820", "data_source": "planet_osm"}}, {"type": "Feature", "geometry": {"type": "Point", "coordinates": [11.744564, 59.482251]}, "properties": {"id": 1417674851, "fixme": "position", "man_made": "surveillance", "name": "\u00d8rje", "operator": "Statens vegvesen", "ref": "110134", "source": "Statens vegvesen", "source:url": "http://webkamera.vegvesen.no/metadata", "surveillance": "webcam", "url": "http://webkamera.vegvesen.no/kamera?id=110134", "data_source": "planet_osm"}}, {"type": "Feature", "geometry": {"type": "Point", "coordinates": [11.2559047, 60.5622866]}, "properties": {"id": 1426556497, "man_made": "surveillance", "surveillance": "indoor", "data_source": "planet_osm"}}, {"type": "Feature", "geometry": {"type": "Point", "coordinates": [16.2942477, 60.5479034]}, "properties": {"id": 1690674472, "man_made": "surveillance", "operator": "OVAKO", "data_source": "planet_osm"}}, {"type": "Feature", "geometry": {"type": "Point", "coordinates": [12.0097411, 60.1876245]}, "properties": {"id": 2055314833, "camera:mount": "pole", "man_made": "surveillance", "surveillance": "public", "surveillance:type": "camera", "surveillance:zone": "parking", "data_source": "planet_osm"}}, {"type": "Feature", "geometry": {"type": "Point", "coordinates": [15.3458304, 60.5280126]}, "properties": {"id": 2802192102, "man_made": "surveillance", "name": "Testplats Amsberg", "operator": "ITS Dalarna", "source": "local_knowledge", "data_source": "planet_osm"}}, {"type": "Feature", "geometry": {"type": "Point", "coordinates": [15.6573704, 59.3813497]}, "properties": {"id": 3015313429, "camera:mount": "pole", "man_made": "surveillance", "surveillance": "public", "surveillance:type": "camera", "surveillance:zone": "street", "data_source": "planet_osm"}}, {"type": "Feature", "geometry": {"type": "Point", "coordinates": [16.8557745, 59.6338891]}, "properties": {"id": 3018355899, "man_made": "surveillance", "surveillance:type": "camera", "data_source": "planet_osm"}}, {"type": "Feature", "geometry": {"type": "Point", "coordinates": [12.0095137, 60.1870562]}, "properties": {"id": 5654622153, "camera:mount": "pole", "camera:type": "fixed", "man_made": "surveillance", "surveillance": "public", "surveillance:type": "camera", "surveillance:zone": "parking", "data_source": "planet_osm"}}, {"type": "Feature", "geometry": {"type": "Point", "coordinates": [12.005328, 60.6128294]}, "properties": {"id": 6106424989, "camera:mount": "roof", "camera:type": "fixed", "image": "https://www.mapillary.com/map/im/0lz9e9_lFHu3bY_Jei39pg", "man_made": "surveillance", "surveillance:type": "camera", "data_source": "planet_osm"}}, {"type": "Feature", "geometry": {"type": "Point", "coordinates": [12.0081687, 60.187568]}, "properties": {"id": 6323656196, "camera:mount": "pole", "camera:type": "fixed", "man_made": "surveillance", "surveillance": "public", "surveillance:type": "camera", "surveillance:zone": "parking", "data_source": "planet_osm"}}], "networks": []}