{"type": "FeatureCollection", "features": [{"type": "Feature", "geometry": {"type": "Point", "coordinates": [18.6209901, -33.8888327]}, "properties": {"id": 4236202399, "man_made": "surveillance", "name": "CCTV 113", "surveillance": "outdoor", "surveillance:type": "camera", "surveillance:zone": "traffic", "website": "https://www.i-traffic.co.za/CctvImageHandler.ashx?networkID=WC&deviceID=WC%20CCTV%20N1%20113&time=1465582985692", "data_source": "planet_osm"}}, {"type": "Feature", "geometry": {"type": "Point", "coordinates": [22.4724822, -33.9827082]}, "properties": {"id": 4237180233, "man_made": "surveillance", "surveillance": "outdoor", "surveillance:type": "camera", "surveillance:zone": "traffic", "data_source": "planet_osm"}}, {"type": "Feature", "geometry": {"type": "Point", "coordinates": [19.0597555, -33.7456795]}, "properties": {"id": 4311055959, "man_made": "surveillance", "name": "N1 OB Huguenot Viaduct", "surveillance": "outdoor", "surveillance:type": "webcam", "surveillance:zone": "traffic", "website": "https://www.i-traffic.co.za/CctvImageHandler.ashx?networkID=WC&deviceID=WC%20CCTV%20N1%20143", "data_source": "planet_osm"}}, {"type": "Feature", "geometry": {"type": "Point", "coordinates": [19.0242608, -33.7441346]}, "properties": {"id": 4311073190, "man_made": "surveillance", "name": "N1 IB Huguenot Toll Plaza Arrestor Bed", "surveillance": "outdoor", "surveillance:type": "webcam", "surveillance:zone": "traffic", "website": "https://www.i-traffic.co.za/CctvImageHandler.ashx?networkID=WC&deviceID=WC%20CCTV%20N1%20142", "data_source": "planet_osm"}}, {"type": "Feature", "geometry": {"type": "Point", "coordinates": [19.0169018, -33.7420861]}, "properties": {"id": 4311111463, "man_made": "surveillance", "name": "N1 Median before Huguenot Toll Plaza", "surveillance": "outdoor", "surveillance:type": "webcam", "surveillance:zone": "traffic", "website": "https://www.i-traffic.co.za/CctvImageHandler.ashx?networkId=WC&deviceId=WC+CCTV+N1+141", "data_source": "planet_osm"}}, {"type": "Feature", "geometry": {"type": "Point", "coordinates": [19.4190306, -33.664247]}, "properties": {"id": 4692678099, "contact:webcam": "http://www.cgc.org.za/webcams/image-cam18.jpg", "direction": "50", "man_made": "surveillance", "surveillance": "outdoor", "data_source": "planet_osm"}}, {"type": "Feature", "geometry": {"type": "Point", "coordinates": [19.4191202, -33.6643374]}, "properties": {"id": 4692678100, "contact:webcam": "http://www.cgc.org.za/webcams/image-cam16.jpg", "direction": "210", "man_made": "surveillance", "surveillance": "outdoor", "data_source": "planet_osm"}}, {"type": "Feature", "geometry": {"type": "Point", "coordinates": [19.4190182, -33.6642744]}, "properties": {"id": 4693823505, "contact:webcam": "http://www.cgc.org.za/webcams/image-cam17.jpg", "direction": "310", "man_made": "surveillance", "surveillance": "outdoor", "data_source": "planet_osm"}}, {"type": "Feature", "geometry": {"type": "Point", "coordinates": [18.3611651, -34.0477028]}, "properties": {"id": 4698737675, "man_made": "surveillance", "source": "bing", "surveillance": "outdoor", "data_source": "planet_osm"}}, {"type": "Feature", "geometry": {"type": "Point", "coordinates": [18.5141967, -33.8502902]}, "properties": {"id": 4795323177, "camera:mount": "pole", "man_made": "surveillance", "surveillance": "outdoor", "surveillance:type": "camera", "data_source": "planet_osm"}}, {"type": "Feature", "geometry": {"type": "Point", "coordinates": [18.379783, -34.0990844]}, "properties": {"id": 5113907579, "man_made": "surveillance", "note": "Here is a Camera.. No speed cam.", "surveillance:type": "camera", "data_source": "planet_osm"}}, {"type": "Feature", "geometry": {"type": "Point", "coordinates": [18.4941366, -33.9724406]}, "properties": {"id": 5928912493, "camera:mount": "pole", "camera:type": "fixed", "highway": "speed_camera", "man_made": "surveillance", "maxspeed:practical": "100", "surveillance": "traffic", "surveillance:type": "ALPR", "surveillance:zone": "traffic", "data_source": "planet_osm"}}, {"type": "Feature", "geometry": {"type": "Point", "coordinates": [18.5588366, -33.9557754]}, "properties": {"id": 6547737742, "camera:mount": "pole", "camera:type": "dome", "man_made": "surveillance", "surveillance": "public", "surveillance:type": "camera", "data_source": "planet_osm"}}], "networks": []}