{"type": "FeatureCollection", "features": [{"type": "Feature", "geometry": {"type": "Point", "coordinates": [-86.4761519, 42.0890528]}, "properties": {"brand": "Flock Safety", "brand:wikidata": "Q108485435", "camera:mount": "pole", "camera:type": "fixed", "direction": "105", "man_made": "surveillance", "operator": "Flock Safety", "operator:wikidata": "Q108485435", "surveillance": "public", "surveillance:type": "ALPR", "surveillance:zone": "traffic", "pe_cameras": "197", "pe_data_retention": "30 days", "pe_vehicles_detected": "197215", "pe_searches": "871", "pe_hotlist_hits": "NA", "pe_portal_url": "https://transparency.flocksafety.com/flock-safety-sales", "pe_external_orgs": "Applied Intel Systems, Axon, Bailey Demo Cam, Berwyn IL PD, Cabarrus County NC SO, Charlotte Mecklenburg NC PD, Concord NC PD, Craig Lynch Demo Cam, Easton MA PD, External RTCC Demo Org, Falcon Flex Demo, Fall River MA PD, Fayette County GA SO, Flock - Admin, Flock LE Training - Old, Flock PD, Flock Safety - Commercial Sales Demo, Flock Safety - Customer, Flock Safety - Engineering, Flock Safety - Marketing, Flock Safety - Ops, Flock Safety - Sales, Flock Safety HOA - External Testing, Flock Safety LE Training, Flock Safety PD - External Testing, Flock Safety PD Test Org, Florida LE Flock Training, Freetown MA PD, Genetec, Georgia Tech CEE, GPC, Indiana LE Demo, Lynne Drake, Mary's LE Flock Training, Mississippi Power, Northeast LE Training - Demo, Ohio LE Flock Training, On Patrol Demo, Ontic Technologies, Peak LE Training, Policing Project, SchoolSafety Demo Org, SkyCop, Southern Company, Tampa FL PD, Tiverton RI PD, Tonia LE Training, Topsfield MA PD, Ubicquia - Wing Demo, Verra Mobility, Wareham MA PD", "pe_sharing_count": 51}}, {"type": "Feature", "geometry": {"type": "Point", "coordinates": [-86.4697717, 42.112332]}, "properties": {"brand": "Motorola Solutions", "brand:wikidata": "Q634815", "camera:mount": "pole", "camera:type": "fixed", "direction": "25", "man_made": "surveillance", "surveillance": "public", "surveillance:type": "ALPR", "surveillance:zone": "traffic"}}, {"type": "Feature", "geometry": {"type": "Point", "coordinates": [-86.4700937, 42.112416]}, "properties": {"brand": "Motorola Solutions", "brand:wikidata": "Q634815", "camera:mount": "pole", "camera:type": "fixed", "direction": "200", "man_made": "surveillance", "surveillance": "public", "surveillance:type": "ALPR", "surveillance:zone": "traffic"}}, {"type": "Feature", "geometry": {"type": "Point", "coordinates": [-86.4513218, 42.1126799]}, "properties": {"brand": "Motorola Solutions", "brand:wikidata": "Q634815", "camera:mount": "pole", "camera:type": "fixed", "direction": "315", "man_made": "surveillance", "surveillance": "public", "surveillance:type": "ALPR", "surveillance:zone": "traffic"}}, {"type": "Feature", "geometry": {"type": "Point", "coordinates": [-86.4513709, 42.1089563]}, "properties": {"brand": "Motorola Solutions", "brand:wikidata": "Q634815", "camera:mount": "pole", "camera:type": "fixed", "direction": "270", "man_made": "surveillance", "surveillance": "public", "surveillance:type": "ALPR", "surveillance:zone": "traffic"}}, {"type": "Feature", "geometry": {"type": "Point", "coordinates": [-86.4515312, 42.1090567]}, "properties": {"brand": "Motorola Solutions", "brand:wikidata": "Q634815", "camera:mount": "pole", "camera:type": "fixed", "direction": "180", "man_made": "surveillance", "surveillance": "public", "surveillance:type": "ALPR", "surveillance:zone": "traffic"}}, {"type": "Feature", "geometry": {"type": "Point", "coordinates": [-86.451298, 42.1126945]}, "properties": {"brand": "Motorola Solutions", "brand:wikidata": "Q634815", "camera:mount": "pole", "camera:type": "fixed", "direction": "140", "man_made": "surveillance", "surveillance": "public", "surveillance:type": "ALPR", "surveillance:zone": "traffic"}}, {"type": "Feature", "geometry": {"type": "Point", "coordinates": [-86.4793093, 42.110833]}, "properties": {"brand": "Flock Safety", "brand:wikidata": "Q108485435", "camera:mount": "pole", "camera:type": "fixed", "direction": "185", "man_made": "surveillance", "surveillance": "public", "surveillance:type": "ALPR", "surveillance:zone": "traffic"}}, {"type": "Feature", "geometry": {"type": "Point", "coordinates": [-86.4252972, 42.0792867]}, "properties": {"brand": "Flock Safety", "brand:wikidata": "Q108485435", "camera:mount": "pole", "camera:type": "fixed", "direction": "325", "man_made": "surveillance", "surveillance": "public", "surveillance:type": "ALPR", "surveillance:zone": "traffic"}}, {"type": "Feature", "geometry": {"type": "Point", "coordinates": [-86.4254103, 42.0808695]}, "properties": {"brand": "Flock Safety", "brand:wikidata": "Q108485435", "camera:mount": "pole", "camera:type": "fixed", "direction": "190", "man_made": "surveillance", "surveillance": "public", "surveillance:type": "ALPR", "surveillance:zone": "traffic"}}, {"type": "Feature", "geometry": {"type": "Point", "coordinates": [-86.2042853, 42.0330172]}, "properties": {"camera:mount": "pole", "camera:type": "fixed", "direction": "160", "man_made": "surveillance", "manufacturer": "Flock Safety", "manufacturer:wikidata": "Q108485435", "surveillance": "public", "surveillance:type": "ALPR", "surveillance:zone": "traffic"}}, {"type": "Feature", "geometry": {"type": "Point", "coordinates": [-86.2623329, 42.2766041]}, "properties": {"camera:mount": "pole", "camera:type": "fixed", "direction": "340", "man_made": "surveillance", "manufacturer": "Flock Safety", "manufacturer:wikidata": "Q108485435", "surveillance": "public", "surveillance:type": "ALPR", "surveillance:zone": "traffic"}}, {"type": "Feature", "geometry": {"type": "Point", "coordinates": [-86.2617484, 42.2428084]}, "properties": {"camera:mount": "pole", "camera:type": "fixed", "direction": "140", "man_made": "surveillance", "manufacturer": "Flock Safety", "manufacturer:wikidata": "Q108485435", "surveillance": "public", "surveillance:type": "ALPR", "surveillance:zone": "traffic"}}, {"type": "Feature", "geometry": {"type": "Point", "coordinates": [-86.4172425, 42.1002972]}, "properties": {"camera:mount": "pole", "camera:type": "fixed", "direction": "340", "man_made": "surveillance", "manufacturer": "Flock Safety", "manufacturer:wikidata": "Q108485435", "surveillance": "public", "surveillance:type": "ALPR", "surveillance:zone": "traffic"}}, {"type": "Feature", "geometry": {"type": "Point", "coordinates": [-86.441446, 42.108974]}, "properties": {"camera:mount": "pole", "camera:type": "fixed", "direction": "250", "man_made": "surveillance", "manufacturer": "Flock Safety", "manufacturer:wikidata": "Q108485435", "surveillance": "public", "surveillance:type": "ALPR", "surveillance:zone": "traffic"}}, {"type": "Feature", "geometry": {"type": "Point", "coordinates": [-86.4566558, 42.1016205]}, "properties": {"camera:mount": "pole", "camera:type": "fixed", "direction": "70", "man_made": "surveillance", "manufacturer": "Flock Safety", "manufacturer:wikidata": "Q108485435", "surveillance": "public", "surveillance:type": "ALPR", "surveillance:zone": "traffic"}}, {"type": "Feature", "geometry": {"type": "Point", "coordinates": [-86.4267656, 42.0808425]}, "properties": {"camera:mount": "pole", "camera:type": "fixed", "direction": "180", "man_made": "surveillance", "manufacturer": "Flock Safety", "manufacturer:wikidata": "Q108485435", "surveillance": "public", "surveillance:type": "ALPR", "surveillance:zone": "traffic"}}, {"type": "Feature", "geometry": {"type": "Point", "coordinates": [-86.4147767, 42.1191633]}, "properties": {"camera:mount": "pole", "camera:type": "fixed", "direction": "90", "man_made": "surveillance", "manufacturer": "Flock Safety", "manufacturer:wikidata": "Q108485435", "surveillance": "public", "surveillance:type": "ALPR", "surveillance:zone": "traffic"}}, {"type": "Feature", "geometry": {"type": "Point", "coordinates": [-86.4191044, 42.1193241]}, "properties": {"camera:mount": "pole", "camera:type": "fixed", "direction": "250", "man_made": "surveillance", "manufacturer": "Flock Safety", "manufacturer:wikidata": "Q108485435", "surveillance": "public", "surveillance:type": "ALPR", "surveillance:zone": "traffic"}}, {"type": "Feature", "geometry": {"type": "Point", "coordinates": [-86.4244628, 42.0823819]}, "properties": {"camera:mount": "pole", "camera:type": "fixed", "direction": "55", "man_made": "surveillance", "manufacturer": "Flock Safety", "manufacturer:wikidata": "Q108485435", "surveillance": "public", "surveillance:type": "ALPR", "surveillance:zone": "traffic"}}, {"type": "Feature", "geometry": {"type": "Point", "coordinates": [-86.4208415, 42.0835128]}, "properties": {"camera:mount": "pole", "camera:type": "fixed", "direction": "200", "man_made": "surveillance", "manufacturer": "Flock Safety", "manufacturer:wikidata": "Q108485435", "surveillance": "public", "surveillance:type": "ALPR", "surveillance:zone": "traffic"}}, {"type": "Feature", "geometry": {"type": "Point", "coordinates": [-86.4208068, 42.0840317]}, "properties": {"camera:mount": "pole", "camera:type": "fixed", "direction": "235", "man_made": "surveillance", "manufacturer": "Flock Safety", "manufacturer:wikidata": "Q108485435", "surveillance": "public", "surveillance:type": "ALPR", "surveillance:zone": "traffic"}}, {"type": "Feature", "geometry": {"type": "Point", "coordinates": [-86.4238437, 42.0800824]}, "properties": {"camera:mount": "pole", "camera:type": "fixed", "direction": "15", "man_made": "surveillance", "manufacturer": "Flock Safety", "manufacturer:wikidata": "Q108485435", "surveillance": "public", "surveillance:type": "ALPR", "surveillance:zone": "traffic"}}, {"type": "Feature", "geometry": {"type": "Point", "coordinates": [-86.4198155, 42.0828028]}, "properties": {"camera:mount": "pole", "camera:type": "fixed", "direction": "170", "man_made": "surveillance", "manufacturer": "Flock Safety", "manufacturer:wikidata": "Q108485435", "surveillance": "public", "surveillance:type": "ALPR", "surveillance:zone": "traffic"}}, {"type": "Feature", "geometry": {"type": "Point", "coordinates": [-86.4249445, 42.080943]}, "properties": {"camera:mount": "pole", "camera:type": "fixed", "direction": "25", "man_made": "surveillance", "manufacturer": "Flock Safety", "manufacturer:wikidata": "Q108485435", "surveillance": "public", "surveillance:type": "ALPR", "surveillance:zone": "traffic"}}], "networks": [{"from": [42.0890528, -86.4761519], "from_name": "Flock Safety", "sharing_count": 51, "connections": [{"to": [41.8364499, -87.7853461], "to_name": "Berwyn IL PD"}, {"to": [35.4093208, -80.5780352], "to_name": "Cabarrus County NC SO"}, {"to": [35.3032745, -80.7508115], "to_name": "Charlotte Mecklenburg NC PD"}, {"to": [42.4564957, -71.34396], "to_name": "Concord NC PD"}, {"to": [42.056328, -71.1084349], "to_name": "Easton MA PD"}, {"to": [33.4448326, -84.4511561], "to_name": "Fayette County GA SO"}, {"to": [35.8078137, -105.913069], "to_name": "Flock PD"}, {"to": [41.7640371, -71.0148643], "to_name": "Freetown MA PD"}, {"to": [27.9483818, -82.4577496], "to_name": "Tampa FL PD"}, {"to": [41.6401335, -71.1865213], "to_name": "Tiverton RI PD"}, {"to": [42.6303353, -70.945674], "to_name": "Topsfield MA PD"}, {"to": [41.7702842, -70.7342832], "to_name": "Wareham MA PD"}]}]}