{"type": "FeatureCollection", "features": [{"type": "Feature", "geometry": {"type": "Point", "coordinates": [7.6718848, 53.7599279]}, "properties": {"id": 1226784789, "man_made": "surveillance", "surveillance": "webcam", "website": "https://www.spiekeroog.de/spiekeroog-erleben/impressionen/webcams/westergroen.html", "data_source": "planet_osm"}}, {"type": "Feature", "geometry": {"type": "Point", "coordinates": [7.6936644, 53.7702471]}, "properties": {"id": 1226784795, "man_made": "surveillance", "surveillance": "webcam", "website": "https://www.spiekeroog.de/spiekeroog-erleben/impressionen/webcams/rathaus.html", "data_source": "planet_osm"}}, {"type": "Feature", "geometry": {"type": "Point", "coordinates": [7.6959363, 53.7790048]}, "properties": {"id": 1226784798, "man_made": "surveillance", "surveillance": "webcam", "website": "https://www.spiekeroog.de/spiekeroog-erleben/impressionen/webcams/strand-1.html", "data_source": "planet_osm"}}, {"type": "Feature", "geometry": {"type": "Point", "coordinates": [7.6923921, 53.7727979]}, "properties": {"id": 1226784800, "man_made": "surveillance", "surveillance": "webcam", "website": "https://www.spiekeroog.de/spiekeroog-erleben/impressionen/webcams/schwimmdock.html", "data_source": "planet_osm"}}, {"type": "Feature", "geometry": {"type": "Point", "coordinates": [7.6962093, 53.7658004]}, "properties": {"id": 1226784801, "man_made": "surveillance", "surveillance": "webcam", "website": "https://www.spiekeroog.de/wissenswertes/webcams-wetter-co/", "data_source": "planet_osm"}}, {"type": "Feature", "geometry": {"type": "Point", "coordinates": [7.6959058, 53.7790028]}, "properties": {"id": 1259626447, "man_made": "surveillance", "surveillance": "webcam", "website": "https://www.spiekeroog.de/spiekeroog-erleben/impressionen/webcams/strand-2.html", "data_source": "planet_osm"}}, {"type": "Feature", "geometry": {"type": "Point", "coordinates": [7.671048, 53.7502827]}, "properties": {"id": 2355040489, "man_made": "surveillance", "name": "Lenkbare Videocam Messstation Spiekeroog", "source": "https://tv108.de/webcams-spie.html", "website:note": "http://spiekeroog.dyndns.org:88/view/index.shtml not responding", "data_source": "planet_osm"}}, {"type": "Feature", "geometry": {"type": "Point", "coordinates": [7.688048, 53.7697013]}, "properties": {"id": 4083068820, "camera:direction": "180", "contact:webcam": "http://haus-admiral.de/camcache/full.jpg", "man_made": "surveillance", "name": "Holiday home Admiral", "surveillance": "webcam", "surveillance:type": "camera", "data_source": "planet_osm"}}], "networks": []}