{"type": "FeatureCollection", "features": [{"type": "Feature", "geometry": {"type": "Point", "coordinates": [14.507556, 50.0274635]}, "properties": {"id": 316417479, "man_made": "surveillance", "name": "Opatov Metro oto\u010dn\u00e1", "surveillance": "public", "data_source": "planet_osm"}}, {"type": "Feature", "geometry": {"type": "Point", "coordinates": [14.4898076, 50.0317372]}, "properties": {"id": 334400409, "man_made": "surveillance", "surveillance": "outdoor", "surveillance:type": "camera", "surveillance:zone": "traffic", "data_source": "planet_osm"}}, {"type": "Feature", "geometry": {"type": "Point", "coordinates": [14.4907581, 50.0273064]}, "properties": {"id": 537147501, "man_made": "surveillance", "data_source": "planet_osm"}}, {"type": "Feature", "geometry": {"type": "Point", "coordinates": [14.6863978, 49.9907931]}, "properties": {"id": 772853438, "camera:mount": "wall", "camera:type": "fixed", "height": "25", "man_made": "surveillance", "surveillance": "outdoor", "surveillance:type": "camera", "surveillance:zone": "town", "data_source": "planet_osm"}}, {"type": "Feature", "geometry": {"type": "Point", "coordinates": [14.6859365, 49.9908485]}, "properties": {"id": 772861962, "camera:mount": "wall", "camera:type": "dome", "height": "25", "man_made": "surveillance", "surveillance": "outdoor", "surveillance:type": "camera", "surveillance:zone": "town", "data_source": "planet_osm"}}, {"type": "Feature", "geometry": {"type": "Point", "coordinates": [14.6855461, 49.9898112]}, "properties": {"id": 772862294, "camera:mount": "wall", "camera:type": "dome", "check_date": "2025-07-06", "man_made": "surveillance", "surveillance": "outdoor", "surveillance:type": "camera", "surveillance:zone": "town", "data_source": "planet_osm"}}, {"type": "Feature", "geometry": {"type": "Point", "coordinates": [14.6860812, 49.989583]}, "properties": {"id": 772870427, "camera:mount": "wall", "camera:type": "dome", "man_made": "surveillance", "surveillance": "outdoor", "surveillance:type": "camera", "surveillance:zone": "town", "data_source": "planet_osm"}}, {"type": "Feature", "geometry": {"type": "Point", "coordinates": [14.5598566, 50.0013424]}, "properties": {"id": 822878396, "man_made": "surveillance", "data_source": "planet_osm"}}, {"type": "Feature", "geometry": {"type": "Point", "coordinates": [14.5610776, 50.0018238]}, "properties": {"id": 822914538, "man_made": "surveillance", "data_source": "planet_osm"}}, {"type": "Feature", "geometry": {"type": "Point", "coordinates": [14.4297624, 50.0516162]}, "properties": {"id": 855010745, "man_made": "surveillance", "data_source": "planet_osm"}}, {"type": "Feature", "geometry": {"type": "Point", "coordinates": [14.4298788, 50.0515165]}, "properties": {"id": 855010766, "man_made": "surveillance", "data_source": "planet_osm"}}, {"type": "Feature", "geometry": {"type": "Point", "coordinates": [14.4304198, 50.0520618]}, "properties": {"id": 855010823, "man_made": "surveillance", "data_source": "planet_osm"}}, {"type": "Feature", "geometry": {"type": "Point", "coordinates": [14.4295547, 50.0516895]}, "properties": {"id": 855010950, "man_made": "surveillance", "data_source": "planet_osm"}}, {"type": "Feature", "geometry": {"type": "Point", "coordinates": [14.4293355, 50.051323]}, "properties": {"id": 855011029, "man_made": "surveillance", "data_source": "planet_osm"}}, {"type": "Feature", "geometry": {"type": "Point", "coordinates": [14.4296688, 50.0517012]}, "properties": {"id": 855011044, "man_made": "surveillance", "data_source": "planet_osm"}}, {"type": "Feature", "geometry": {"type": "Point", "coordinates": [14.4299815, 50.0518727]}, "properties": {"id": 855011069, "man_made": "surveillance", "data_source": "planet_osm"}}, {"type": "Feature", "geometry": {"type": "Point", "coordinates": [14.549211, 50.0571085]}, "properties": {"id": 861812383, "man_made": "surveillance", "data_source": "planet_osm"}}, {"type": "Feature", "geometry": {"type": "Point", "coordinates": [14.494325, 50.0312385]}, "properties": {"id": 1039451402, "man_made": "surveillance", "surveillance": "outdoor", "data_source": "planet_osm"}}, {"type": "Feature", "geometry": {"type": "Point", "coordinates": [14.5379866, 50.0539214]}, "properties": {"id": 1808960582, "camera:mount": "street_lamp", "camera:type": "dome", "man_made": "surveillance", "surveillance:type": "camera", "data_source": "planet_osm"}}, {"type": "Feature", "geometry": {"type": "Point", "coordinates": [14.6574438, 49.9918736]}, "properties": {"id": 2061123090, "man_made": "surveillance", "surveillance": "public", "data_source": "planet_osm"}}, {"type": "Feature", "geometry": {"type": "Point", "coordinates": [14.6658606, 50.0019757]}, "properties": {"id": 2061123102, "man_made": "surveillance", "surveillance": "public", "data_source": "planet_osm"}}, {"type": "Feature", "geometry": {"type": "Point", "coordinates": [14.4198403, 50.0638996]}, "properties": {"id": 2174748756, "man_made": "surveillance", "name": "K rotund\u011b", "surveillance": "public", "data_source": "planet_osm"}}, {"type": "Feature", "geometry": {"type": "Point", "coordinates": [14.4327069, 50.0597163]}, "properties": {"id": 2177310729, "man_made": "surveillance", "name": "5.kv\u011btna 51 - WEB", "surveillance": "public", "data_source": "planet_osm"}}, {"type": "Feature", "geometry": {"type": "Point", "coordinates": [14.4327822, 50.0597058]}, "properties": {"id": 2177310736, "designation": "5.kv\u011btna 51", "man_made": "surveillance", "name": "5.kv\u011btna 51 - WEB dopravn\u00ed kamera", "surveillance": "public", "data_source": "planet_osm"}}, {"type": "Feature", "geometry": {"type": "Point", "coordinates": [14.45027, 50.0428934]}, "properties": {"id": 2177311824, "designation": "Antala Sta\u0161ka 80/1670 - roh (poliklinika Bud\u011bjovick\u00e1)", "man_made": "surveillance", "name": "Antala Sta\u0161ka 80", "surveillance": "public", "data_source": "planet_osm"}}, {"type": "Feature", "geometry": {"type": "Point", "coordinates": [14.4335598, 50.0566064]}, "properties": {"id": 2177337722, "designation": "n\u00e1m. Hrdin\u016f 3/1634", "man_made": "surveillance", "name": "Centrotex IPB Real", "surveillance": "public", "data_source": "planet_osm"}}, {"type": "Feature", "geometry": {"type": "Point", "coordinates": [14.4329804, 50.0625368]}, "properties": {"id": 2177365101, "designation": "Kongresov\u00e1 1", "man_made": "surveillance", "surveillance": "public", "data_source": "planet_osm"}}, {"type": "Feature", "geometry": {"type": "Point", "coordinates": [14.4321329, 50.0625161]}, "properties": {"id": 2177365109, "designation": "Kongresov\u00e1 1", "man_made": "surveillance", "surveillance": "public", "data_source": "planet_osm"}}, {"type": "Feature", "geometry": {"type": "Point", "coordinates": [14.4508332, 50.0445091]}, "properties": {"id": 2177377769, "designation": "Bud\u011bjovick\u00e1 15", "man_made": "surveillance", "name": "hotel ILF", "surveillance": "public", "data_source": "planet_osm"}}, {"type": "Feature", "geometry": {"type": "Point", "coordinates": [14.450962, 50.0446538]}, "properties": {"id": 2177377770, "designation": "Bud\u011bjovick\u00e1 15 - hotel ILF - st\u0159echa", "man_made": "surveillance", "name": "Jihlavsk\u00e1 - ILF", "surveillance": "public", "data_source": "planet_osm"}}, {"type": "Feature", "geometry": {"type": "Point", "coordinates": [14.4511873, 50.0424145]}, "properties": {"id": 2177377771, "designation": "Antala Sta\u0161ka 80/1670 - roh", "man_made": "surveillance", "name": "poliklinika Bud\u011bjovick\u00e1", "surveillance": "public", "data_source": "planet_osm"}}, {"type": "Feature", "geometry": {"type": "Point", "coordinates": [14.4601995, 50.0417117]}, "properties": {"id": 2177377772, "man_made": "surveillance", "name": "Michelsk\u00e1 - Metro Ka\u010derov", "surveillance": "public", "data_source": "planet_osm"}}, {"type": "Feature", "geometry": {"type": "Point", "coordinates": [14.4297301, 50.0625574]}, "properties": {"id": 2177381384, "designation": "5. Kv\u011btna 65/1640", "man_made": "surveillance", "name": "Kongresov\u00e9 centrum", "surveillance": "public", "data_source": "planet_osm"}}, {"type": "Feature", "geometry": {"type": "Point", "coordinates": [14.4348473, 50.0538165]}, "properties": {"id": 2177381385, "designation": "Kotorsk\u00e1 1578/34", "man_made": "surveillance", "name": "Kotorsk\u00e1", "surveillance": "public", "data_source": "planet_osm"}}, {"type": "Feature", "geometry": {"type": "Point", "coordinates": [14.4809062, 50.0134942]}, "properties": {"id": 2177383495, "designation": "K Libu\u0161i VO 431207/193159 - zast\u00e1vka BUS", "man_made": "surveillance", "name": "Kunratick\u00fd z\u00e1mek", "surveillance": "public", "data_source": "planet_osm"}}, {"type": "Feature", "geometry": {"type": "Point", "coordinates": [14.4530219, 50.0545949]}, "properties": {"id": 2177395945, "man_made": "surveillance", "name": "Michelsk\u00e1 - Nuselsk\u00e1 VO", "surveillance": "public", "data_source": "planet_osm"}}, {"type": "Feature", "geometry": {"type": "Point", "coordinates": [14.4530005, 50.0547327]}, "properties": {"id": 2177395946, "man_made": "surveillance", "name": "Michelsk\u00e1 - Nuselsk\u00e1 VO-pevn\u00e1", "surveillance": "public", "data_source": "planet_osm"}}, {"type": "Feature", "geometry": {"type": "Point", "coordinates": [14.4405335, 50.048698]}, "properties": {"id": 2177400652, "man_made": "surveillance", "name": "Na Str\u017ei 40/1683", "surveillance": "public", "data_source": "planet_osm"}}, {"type": "Feature", "geometry": {"type": "Point", "coordinates": [14.4257277, 50.0615656]}, "properties": {"id": 2177403227, "man_made": "surveillance", "name": "Na Pankr\u00e1ci 5/995", "surveillance": "public", "data_source": "planet_osm"}}, {"type": "Feature", "geometry": {"type": "Point", "coordinates": [14.4352228, 50.0624748]}, "properties": {"id": 2177409633, "designation": "Na V\u00edt\u011bzn\u00e9 pl\u00e1ni 7/1160", "man_made": "surveillance", "name": "Na V\u00edt\u011bzn\u00e9 pl\u00e1\u0148i 7", "surveillance": "public", "data_source": "planet_osm"}}, {"type": "Feature", "geometry": {"type": "Point", "coordinates": [14.4855678, 50.0133597]}, "properties": {"id": 2177417280, "man_made": "surveillance", "name": "N\u00e1m\u011bst\u00ed prezidenta Masaryka 14", "surveillance": "public", "data_source": "planet_osm"}}, {"type": "Feature", "geometry": {"type": "Point", "coordinates": [14.4410753, 50.0639521]}, "properties": {"id": 2177419009, "designation": "N\u00e1m\u011bst\u00ed brat\u0159\u00ed Synk\u016f 8", "man_made": "surveillance", "name": "N\u00e1m\u011bst\u00ed brat\u0159\u00ed Synk\u016f 8", "surveillance": "public", "data_source": "planet_osm"}}, {"type": "Feature", "geometry": {"type": "Point", "coordinates": [14.4332433, 50.0250995]}, "properties": {"id": 2177425075, "man_made": "surveillance", "name": "Novodvorsk\u00e1 153/435", "surveillance": "public", "data_source": "planet_osm"}}, {"type": "Feature", "geometry": {"type": "Point", "coordinates": [14.4494385, 50.0602363]}, "properties": {"id": 2177446548, "man_made": "surveillance", "name": "Nuselsk\u00e1-Klobou\u010dnick\u00e1 VO-pevn\u00e1", "surveillance": "public", "data_source": "planet_osm"}}, {"type": "Feature", "geometry": {"type": "Point", "coordinates": [14.4496209, 50.0603672]}, "properties": {"id": 2177446577, "man_made": "surveillance", "name": "Nuselsk\u00e1-Klobou\u010dnick\u00e1 VO-pevn\u00e1", "surveillance": "public", "data_source": "planet_osm"}}, {"type": "Feature", "geometry": {"type": "Point", "coordinates": [14.4497925, 50.0600986]}, "properties": {"id": 2177446612, "man_made": "surveillance", "name": "Nuselsk\u00e1-Klobou\u010dnick\u00e1", "surveillance": "public", "data_source": "planet_osm"}}, {"type": "Feature", "geometry": {"type": "Point", "coordinates": [14.4516593, 50.0519841]}, "properties": {"id": 2177452860, "man_made": "surveillance", "name": "Ohradn\u00ed", "surveillance": "public", "data_source": "planet_osm"}}, {"type": "Feature", "geometry": {"type": "Point", "coordinates": [14.4198591, 50.0590792]}, "properties": {"id": 2177464101, "man_made": "surveillance", "name": "Podolsk\u00e1 33/158", "surveillance": "public", "data_source": "planet_osm"}}, {"type": "Feature", "geometry": {"type": "Point", "coordinates": [14.4335491, 50.0526799]}, "properties": {"id": 2177464104, "designation": "Pujmanov\u00e9 40/1546", "man_made": "surveillance", "name": "Plam\u00ednkov\u00e9", "surveillance": "public", "data_source": "planet_osm"}}, {"type": "Feature", "geometry": {"type": "Point", "coordinates": [14.435845, 50.061724]}, "properties": {"id": 2177464108, "man_made": "surveillance", "name": "Petra Rezka", "surveillance": "public", "data_source": "planet_osm"}}, {"type": "Feature", "geometry": {"type": "Point", "coordinates": [14.4248855, 50.0639159]}, "properties": {"id": 2177464376, "man_made": "surveillance", "name": "Slavojova 12/86", "surveillance": "public", "data_source": "planet_osm"}}, {"type": "Feature", "geometry": {"type": "Point", "coordinates": [14.452464, 50.019747]}, "properties": {"id": 2177468800, "designation": "V \u0160t\u00edhl\u00e1ch", "man_made": "surveillance", "name": "\u0160\u0165\u00farova - V \u0160t\u00edhl\u00e1ch", "surveillance": "public", "data_source": "planet_osm"}}, {"type": "Feature", "geometry": {"type": "Point", "coordinates": [14.4513697, 50.0241587]}, "properties": {"id": 2177471172, "man_made": "surveillance", "name": "\u0160t\u00farova", "surveillance": "public", "data_source": "planet_osm"}}, {"type": "Feature", "geometry": {"type": "Point", "coordinates": [14.4560045, 50.0307203]}, "properties": {"id": 2177471182, "designation": "V\u00edde\u0148sk\u00e1 800", "man_made": "surveillance", "name": "Thomayerova nem.", "surveillance": "public", "data_source": "planet_osm"}}, {"type": "Feature", "geometry": {"type": "Point", "coordinates": [14.4553179, 50.0552907]}, "properties": {"id": 2177473103, "man_made": "surveillance", "name": "U Plyn\u00e1rny", "surveillance": "public", "data_source": "planet_osm"}}, {"type": "Feature", "geometry": {"type": "Point", "coordinates": [14.4382167, 50.0414223]}, "properties": {"id": 2177482190, "man_made": "surveillance", "name": "Na Str\u017ei 9", "surveillance": "public", "data_source": "planet_osm"}}, {"type": "Feature", "geometry": {"type": "Point", "coordinates": [14.4318217, 50.0242896]}, "properties": {"id": 2178275712, "man_made": "surveillance", "name": "J\u00edlovsk\u00e1 41/1150", "surveillance": "public", "data_source": "planet_osm"}}, {"type": "Feature", "geometry": {"type": "Point", "coordinates": [14.4582469, 50.0177065]}, "properties": {"id": 2178278850, "man_made": "surveillance", "name": "Jalodvorsk\u00e1", "surveillance": "public", "data_source": "planet_osm"}}, {"type": "Feature", "geometry": {"type": "Point", "coordinates": [14.4573456, 50.0170791]}, "properties": {"id": 2178278860, "man_made": "surveillance", "name": "Jalodvorsk\u00e1- pevn\u00e1", "surveillance": "public", "data_source": "planet_osm"}}, {"type": "Feature", "geometry": {"type": "Point", "coordinates": [14.4504041, 50.0173411]}, "properties": {"id": 2178355472, "man_made": "surveillance", "name": "Eltodo Citelum", "surveillance": "public", "data_source": "planet_osm"}}, {"type": "Feature", "geometry": {"type": "Point", "coordinates": [14.5067534, 50.0566085]}, "properties": {"id": 2197772075, "man_made": "surveillance", "name": "Topolov\u00e1 2572", "surveillance": "public", "data_source": "planet_osm"}}, {"type": "Feature", "geometry": {"type": "Point", "coordinates": [14.507133, 50.0602591]}, "properties": {"id": 2197806006, "man_made": "surveillance", "name": "\u0160vehlova- Topolov\u00e1", "surveillance": "public", "data_source": "planet_osm"}}, {"type": "Feature", "geometry": {"type": "Point", "coordinates": [14.5290035, 50.0300586]}, "properties": {"id": 2197819388, "man_made": "surveillance", "name": "Bajkonursk\u00e1 2/736", "surveillance": "public", "data_source": "planet_osm"}}, {"type": "Feature", "geometry": {"type": "Point", "coordinates": [14.5136916, 50.03263]}, "properties": {"id": 2197821100, "man_made": "surveillance", "name": "Brandlova 1/1641", "surveillance": "public", "data_source": "planet_osm"}}, {"type": "Feature", "geometry": {"type": "Point", "coordinates": [14.5129746, 50.0387728]}, "properties": {"id": 2197825528, "man_made": "surveillance", "name": "Brechtova 824/24", "surveillance": "public", "data_source": "planet_osm"}}, {"type": "Feature", "geometry": {"type": "Point", "coordinates": [14.5293093, 50.0279668]}, "properties": {"id": 2197826584, "man_made": "surveillance", "name": "Cyprichova 707/2", "surveillance": "public", "data_source": "planet_osm"}}, {"type": "Feature", "geometry": {"type": "Point", "coordinates": [14.4785834, 50.0342144]}, "properties": {"id": 2197832139, "man_made": "surveillance", "name": "Hrudi\u010dkova 13/2100", "surveillance": "public", "data_source": "planet_osm"}}, {"type": "Feature", "geometry": {"type": "Point", "coordinates": [14.4906533, 50.0275533]}, "properties": {"id": 2197832140, "man_made": "surveillance", "name": "Hr\u00e1sk\u00e9ho 1925/15", "surveillance": "public", "data_source": "planet_osm"}}, {"type": "Feature", "geometry": {"type": "Point", "coordinates": [14.5163006, 50.0029687]}, "properties": {"id": 2197834491, "man_made": "surveillance", "name": "Hrn\u010d\u00ed\u0159e - h\u0159bitov VO pevn\u00e1", "surveillance": "public", "data_source": "planet_osm"}}, {"type": "Feature", "geometry": {"type": "Point", "coordinates": [14.4852942, 50.0338973]}, "properties": {"id": 2197837363, "man_made": "surveillance", "name": "Kloknerova 1/1245", "surveillance": "public", "data_source": "planet_osm"}}, {"type": "Feature", "geometry": {"type": "Point", "coordinates": [14.528215, 50.0316541]}, "properties": {"id": 2197847636, "designation": "Alkalick\u00e1 1/877", "man_made": "surveillance", "name": "Kupeck\u00e9ho/kino Galaxie", "surveillance": "public", "data_source": "planet_osm"}}, {"type": "Feature", "geometry": {"type": "Point", "coordinates": [14.5147395, 50.0281254]}, "properties": {"id": 2197847640, "man_made": "surveillance", "name": "K\u0159ejpsk\u00e9ho 1514/17", "surveillance": "public", "data_source": "planet_osm"}}, {"type": "Feature", "geometry": {"type": "Point", "coordinates": [14.5349258, 50.031723]}, "properties": {"id": 2197847644, "man_made": "surveillance", "name": "Janouchova 661/15", "surveillance": "public", "data_source": "planet_osm"}}, {"type": "Feature", "geometry": {"type": "Point", "coordinates": [14.5075512, 50.0277739]}, "properties": {"id": 2197848850, "man_made": "surveillance", "name": "Opatov Metro pevn\u00e1 I.", "surveillance": "public", "data_source": "planet_osm"}}, {"type": "Feature", "geometry": {"type": "Point", "coordinates": [14.508313, 50.0278324]}, "properties": {"id": 2197849769, "man_made": "surveillance", "name": "Opatov Metro pevn\u00e1 II.", "surveillance": "public", "data_source": "planet_osm"}}, {"type": "Feature", "geometry": {"type": "Point", "coordinates": [14.5268631, 50.0301207]}, "properties": {"id": 2197854901, "man_made": "surveillance", "name": "Opatovsk\u00e1", "surveillance": "public", "data_source": "planet_osm"}}, {"type": "Feature", "geometry": {"type": "Point", "coordinates": [14.5282774, 50.0305277]}, "properties": {"id": 2197854902, "man_made": "surveillance", "name": "Opatovsk\u00e1 - Bajkonursk\u00e1", "surveillance": "public", "data_source": "planet_osm"}}, {"type": "Feature", "geometry": {"type": "Point", "coordinates": [14.5178724, 50.0258888]}, "properties": {"id": 2197854903, "man_made": "surveillance", "name": "Opatovsk\u00e1 1763", "surveillance": "public", "data_source": "planet_osm"}}, {"type": "Feature", "geometry": {"type": "Point", "coordinates": [14.4890654, 50.0270467]}, "properties": {"id": 2197866158, "man_made": "surveillance", "name": "Kl\u00edrova 11/1918", "surveillance": "public", "data_source": "planet_osm"}}, {"type": "Feature", "geometry": {"type": "Point", "coordinates": [14.5147556, 50.0220391]}, "properties": {"id": 2197875935, "man_made": "surveillance", "name": "Radimovick\u00e1 10/1415", "surveillance": "public", "data_source": "planet_osm"}}, {"type": "Feature", "geometry": {"type": "Point", "coordinates": [14.5153189, 50.021753]}, "properties": {"id": 2197875948, "man_made": "surveillance", "name": "Radimovick\u00e1 II parkovi\u0161t\u011b - oto\u010dn\u00e1", "surveillance": "public", "data_source": "planet_osm"}}, {"type": "Feature", "geometry": {"type": "Point", "coordinates": [14.5138115, 50.011019]}, "properties": {"id": 2197902213, "man_made": "surveillance", "name": "\u0160eberov mltf. H\u0159i\u0161t\u011b", "surveillance": "public", "data_source": "planet_osm"}}, {"type": "Feature", "geometry": {"type": "Point", "coordinates": [14.4990272, 50.0219736]}, "properties": {"id": 2197902218, "man_made": "surveillance", "name": "Roztylsk\u00e1 1/1860", "surveillance": "public", "data_source": "planet_osm"}}, {"type": "Feature", "geometry": {"type": "Point", "coordinates": [14.5141012, 50.0102468]}, "properties": {"id": 2197902222, "man_made": "surveillance", "name": "\u0160eberov mltf. H\u0159i\u0161t\u011b-pevn\u00e1", "surveillance": "public", "data_source": "planet_osm"}}, {"type": "Feature", "geometry": {"type": "Point", "coordinates": [14.4991774, 50.0336424]}, "properties": {"id": 2197905941, "man_made": "surveillance", "name": "T\u00fcrkova", "surveillance": "public", "data_source": "planet_osm"}}, {"type": "Feature", "geometry": {"type": "Point", "coordinates": [14.5125884, 50.0262127]}, "properties": {"id": 2197906466, "man_made": "surveillance", "name": "U Chodovsk\u00e9ho h\u0159bitova 1/2141", "surveillance": "public", "data_source": "planet_osm"}}, {"type": "Feature", "geometry": {"type": "Point", "coordinates": [14.5248622, 50.0258819]}, "properties": {"id": 2197909404, "man_made": "surveillance", "name": "Vidimova 1324/4", "surveillance": "public", "data_source": "planet_osm"}}, {"type": "Feature", "geometry": {"type": "Point", "coordinates": [14.4922036, 50.0261024]}, "properties": {"id": 2197911576, "man_made": "surveillance", "name": "Jarn\u00edkova 1868/28", "surveillance": "public", "data_source": "planet_osm"}}, {"type": "Feature", "geometry": {"type": "Point", "coordinates": [14.4208676, 50.0125221]}, "properties": {"id": 2197924686, "man_made": "surveillance", "name": "Lhoteck\u00e1-Hotel D\u016fm-parkovi\u0161t\u011b", "surveillance": "public", "data_source": "planet_osm"}}, {"type": "Feature", "geometry": {"type": "Point", "coordinates": [14.4209373, 50.0123083]}, "properties": {"id": 2197924687, "man_made": "surveillance", "name": "Lhoteck\u00e1-Hotel D\u016fm", "surveillance": "public", "data_source": "planet_osm"}}, {"type": "Feature", "geometry": {"type": "Point", "coordinates": [14.4621736, 50.0089919]}, "properties": {"id": 2197928508, "man_made": "surveillance", "name": "Libu\u0161sk\u00e1 - Dobronick\u00e1", "surveillance": "public", "data_source": "planet_osm"}}, {"type": "Feature", "geometry": {"type": "Point", "coordinates": [14.4621575, 50.0088919]}, "properties": {"id": 2197928510, "man_made": "surveillance", "name": "Libu\u0161sk\u00e1 - Dobronick\u00e1 VO-pevn\u00e1", "surveillance": "public", "data_source": "planet_osm"}}, {"type": "Feature", "geometry": {"type": "Point", "coordinates": [14.4648397, 50.002679]}, "properties": {"id": 2197954014, "man_made": "surveillance", "name": "Libu\u0161sk\u00e1 - klub Rybi\u010dka VO", "surveillance": "public", "data_source": "planet_osm"}}, {"type": "Feature", "geometry": {"type": "Point", "coordinates": [14.464829, 50.0023411]}, "properties": {"id": 2197954018, "man_made": "surveillance", "name": "Libu\u0161sk\u00e1 - klub Rybi\u010dka VO-pevn\u00e1", "surveillance": "public", "data_source": "planet_osm"}}, {"type": "Feature", "geometry": {"type": "Point", "coordinates": [14.4648504, 50.0025273]}, "properties": {"id": 2197954021, "man_made": "surveillance", "name": "Libu\u0161sk\u00e1 - klub Rybi\u010dka VO-pevn\u00e1", "surveillance": "public", "data_source": "planet_osm"}}, {"type": "Feature", "geometry": {"type": "Point", "coordinates": [14.4306952, 50.0157762]}, "properties": {"id": 2197965676, "man_made": "surveillance", "name": "OBI Lhoteck\u00e1 VO", "surveillance": "public", "data_source": "planet_osm"}}, {"type": "Feature", "geometry": {"type": "Point", "coordinates": [14.4311297, 50.0159623]}, "properties": {"id": 2197965677, "man_made": "surveillance", "name": "OBI Lhoteck\u00e1 /parkovi\u0161t\u011b/", "surveillance": "public", "data_source": "planet_osm"}}, {"type": "Feature", "geometry": {"type": "Point", "coordinates": [14.4540547, 50.0094631]}, "properties": {"id": 2197965678, "man_made": "surveillance", "name": "Pavl\u00edkova 607/16", "surveillance": "public", "data_source": "planet_osm"}}, {"type": "Feature", "geometry": {"type": "Point", "coordinates": [14.4179547, 50.0078818]}, "properties": {"id": 2198043126, "man_made": "surveillance", "name": "Pejevov\u00e9 2/3418", "surveillance": "public", "data_source": "planet_osm"}}, {"type": "Feature", "geometry": {"type": "Point", "coordinates": [14.4223267, 49.9992413]}, "properties": {"id": 2198045302, "man_made": "surveillance", "name": "Petr\u017e\u00edlova 3302/15", "surveillance": "public", "data_source": "planet_osm"}}, {"type": "Feature", "geometry": {"type": "Point", "coordinates": [14.4458014, 50.0146834]}, "properties": {"id": 2198048967, "man_made": "surveillance", "name": "P\u0161en\u010d\u00edkova 16/678 - st\u0159echa panelov\u00e9ho domu", "surveillance": "public", "data_source": "planet_osm"}}, {"type": "Feature", "geometry": {"type": "Point", "coordinates": [14.4457585, 50.0147696]}, "properties": {"id": 2198048968, "man_made": "surveillance", "name": "P\u0161en\u010d\u00edkova 16/678", "surveillance": "public", "data_source": "planet_osm"}}, {"type": "Feature", "geometry": {"type": "Point", "coordinates": [14.4180352, 50.0054856]}, "properties": {"id": 2198048969, "man_made": "surveillance", "name": "Sofijsk\u00e9 n\u00e1m\u011bst\u00ed 3400", "surveillance": "public", "data_source": "planet_osm"}}, {"type": "Feature", "geometry": {"type": "Point", "coordinates": [14.4290269, 50.0012033]}, "properties": {"id": 2198052341, "man_made": "surveillance", "name": "Vokrojova 3379/2", "surveillance": "public", "data_source": "planet_osm"}}, {"type": "Feature", "geometry": {"type": "Point", "coordinates": [14.435373, 50.0141388]}, "properties": {"id": 2198052342, "man_made": "surveillance", "name": "Z\u00e1rubova 2/507", "surveillance": "public", "data_source": "planet_osm"}}, {"type": "Feature", "geometry": {"type": "Point", "coordinates": [14.4521207, 50.006913]}, "properties": {"id": 2198052742, "man_made": "surveillance", "name": "Zimova 621/11", "surveillance": "public", "data_source": "planet_osm"}}, {"type": "Feature", "geometry": {"type": "Point", "coordinates": [14.4520402, 50.0068475]}, "properties": {"id": 2198052743, "man_made": "surveillance", "name": "Zimova 621/11", "surveillance": "public", "data_source": "planet_osm"}}, {"type": "Feature", "geometry": {"type": "Point", "coordinates": [14.5176792, 50.047172]}, "properties": {"id": 2199284926, "designation": "Vajdova 1034 a 1035", "man_made": "surveillance", "name": "Doupovsk\u00e1", "surveillance": "public", "data_source": "planet_osm"}}, {"type": "Feature", "geometry": {"type": "Point", "coordinates": [14.5372648, 50.0539749]}, "properties": {"id": 2199286441, "man_made": "surveillance", "name": "Hostiva\u0159 - kone\u010dn\u00e1 tram.", "surveillance": "public", "data_source": "planet_osm"}}, {"type": "Feature", "geometry": {"type": "Point", "coordinates": [14.5376745, 50.0536983]}, "properties": {"id": 2199286442, "man_made": "surveillance", "name": "Hostiva\u0159 - kone\u010dn\u00e1 tram. VO- pevn\u00e1 n\u00e1stupi\u0161t\u011b", "surveillance": "public", "data_source": "planet_osm"}}, {"type": "Feature", "geometry": {"type": "Point", "coordinates": [14.5381152, 50.0534719]}, "properties": {"id": 2199286443, "man_made": "surveillance", "name": "Hostiva\u0159 - kone\u010dn\u00e1 tram. VO- pevn\u00e1 podchod", "surveillance": "public", "data_source": "planet_osm"}}, {"type": "Feature", "geometry": {"type": "Point", "coordinates": [14.5252216, 50.0508647]}, "properties": {"id": 2199288107, "man_made": "surveillance", "name": "Hostiva\u0159sk\u00e9 n\u00e1m\u011bst\u00ed", "surveillance": "public", "data_source": "planet_osm"}}, {"type": "Feature", "geometry": {"type": "Point", "coordinates": [14.5639742, 50.0335286]}, "properties": {"id": 2199291961, "man_made": "surveillance", "name": "Kur\u010datovova 321", "surveillance": "public", "data_source": "planet_osm"}}, {"type": "Feature", "geometry": {"type": "Point", "coordinates": [14.5638615, 50.0323295]}, "properties": {"id": 2199291963, "man_made": "surveillance", "name": "Kur\u010datovova 324", "surveillance": "public", "data_source": "planet_osm"}}, {"type": "Feature", "geometry": {"type": "Point", "coordinates": [14.5577622, 50.0397341]}, "properties": {"id": 2199293926, "man_made": "surveillance", "name": "Lessnerova 261", "surveillance": "public", "data_source": "planet_osm"}}, {"type": "Feature", "geometry": {"type": "Point", "coordinates": [14.5879263, 50.0611007]}, "properties": {"id": 2199293927, "man_made": "surveillance", "name": "M\u011bstsk\u00e1 - Za Pavilonem", "surveillance": "public", "data_source": "planet_osm"}}, {"type": "Feature", "geometry": {"type": "Point", "coordinates": [14.5961387, 50.0619903]}, "properties": {"id": 2199298537, "camera:mount": "street_lamp", "camera:type": "dome", "man_made": "surveillance", "name": "Mikova - Netluck\u00e1", "surveillance": "public", "surveillance:type": "camera", "surveillance:zone": "town", "survey:date": "2024-03-13", "data_source": "planet_osm"}}, {"type": "Feature", "geometry": {"type": "Point", "coordinates": [14.5530468, 50.0430553]}, "properties": {"id": 2199299965, "man_made": "surveillance", "name": "Nad p\u0159ehradou 406", "surveillance": "public", "data_source": "planet_osm"}}, {"type": "Feature", "geometry": {"type": "Point", "coordinates": [14.5439059, 50.0486877]}, "properties": {"id": 2199317743, "man_made": "surveillance", "name": "Z\u00e1pasnick\u00e1 1/876", "surveillance": "public", "data_source": "planet_osm"}}, {"type": "Feature", "geometry": {"type": "Point", "coordinates": [14.5438469, 50.0486739]}, "properties": {"id": 2199317744, "designation": "Z\u00e1pasnick\u00e1 1/876", "man_made": "surveillance", "name": "Plk. Mr\u00e1ze - Albert", "surveillance": "public", "data_source": "planet_osm"}}, {"type": "Feature", "geometry": {"type": "Point", "coordinates": [14.5649612, 50.0370535]}, "properties": {"id": 2199317745, "man_made": "surveillance", "name": "Rezlerova 300", "surveillance": "public", "data_source": "planet_osm"}}, {"type": "Feature", "geometry": {"type": "Point", "coordinates": [14.5590417, 50.03526]}, "properties": {"id": 2199317746, "man_made": "surveillance", "name": "Bellova 124", "surveillance": "public", "data_source": "planet_osm"}}, {"type": "Feature", "geometry": {"type": "Point", "coordinates": [14.5237571, 50.0533274]}, "properties": {"id": 2199317747, "man_made": "surveillance", "name": "\u0160vehlova 1435/25", "surveillance": "public", "data_source": "planet_osm"}}, {"type": "Feature", "geometry": {"type": "Point", "coordinates": [14.5564801, 50.0471685]}, "properties": {"id": 2199317748, "man_made": "surveillance", "name": "Bolo\u0148sk\u00e1 1", "surveillance": "public", "data_source": "planet_osm"}}, {"type": "Feature", "geometry": {"type": "Point", "coordinates": [14.563309, 50.0362163]}, "properties": {"id": 2199320771, "man_made": "surveillance", "name": "Rezlerova 302", "surveillance": "public", "data_source": "planet_osm"}}, {"type": "Feature", "geometry": {"type": "Point", "coordinates": [14.5621717, 50.0387659]}, "properties": {"id": 2199320775, "man_made": "surveillance", "name": "Rezlerova 272", "surveillance": "public", "data_source": "planet_osm"}}, {"type": "Feature", "geometry": {"type": "Point", "coordinates": [14.5585722, 50.0424317]}, "properties": {"id": 2199335117, "man_made": "surveillance", "name": "Veronsk\u00e9 n\u00e1m\u011bst\u00ed 330", "surveillance": "public", "data_source": "planet_osm"}}, {"type": "Feature", "geometry": {"type": "Point", "coordinates": [14.5605815, 50.0426377]}, "properties": {"id": 2199335138, "man_made": "surveillance", "name": "Veronsk\u00e9 n\u00e1m\u011bst\u00ed 338 - st\u0159echa", "surveillance": "public", "data_source": "planet_osm"}}, {"type": "Feature", "geometry": {"type": "Point", "coordinates": [14.6420855, 50.0601055]}, "properties": {"id": 2199544302, "man_made": "surveillance", "name": "Podz\u00e1meck\u00e1", "surveillance": "public", "data_source": "planet_osm"}}, {"type": "Feature", "geometry": {"type": "Point", "coordinates": [14.6432978, 50.0631566]}, "properties": {"id": 2199550451, "man_made": "surveillance", "name": "V lip\u00e1ch", "surveillance": "public", "data_source": "planet_osm"}}, {"type": "Feature", "geometry": {"type": "Point", "coordinates": [14.6050817, 50.0298656]}, "properties": {"id": 2199556048, "man_made": "surveillance", "name": "N\u00e1m.Smi\u0159ick\u00fdch", "surveillance": "public", "data_source": "planet_osm"}}, {"type": "Feature", "geometry": {"type": "Point", "coordinates": [14.5969173, 50.0324432]}, "properties": {"id": 2199556049, "man_made": "surveillance", "name": "NORMA parkovi\u0161t\u011b- ulice P\u0159\u00e1telstv\u00ed", "surveillance": "public", "data_source": "planet_osm"}}, {"type": "Feature", "geometry": {"type": "Point", "coordinates": [14.599315, 50.0318781]}, "properties": {"id": 2199558329, "man_made": "surveillance", "name": "Nov\u00e1 radnice", "surveillance": "public", "data_source": "planet_osm"}}, {"type": "Feature", "geometry": {"type": "Point", "coordinates": [14.6005973, 50.0294521]}, "properties": {"id": 2199558330, "man_made": "surveillance", "name": "n\u00e1m\u011bst\u00ed Protifa\u0161istick\u00fdch bojovn\u00edk\u016f 78", "surveillance": "public", "data_source": "planet_osm"}}, {"type": "Feature", "geometry": {"type": "Point", "coordinates": [14.530645, 50.0528315]}, "properties": {"id": 2201748867, "man_made": "surveillance", "name": "Hostiva\u0159sk\u00e1 - \u0160vehlova", "surveillance": "public", "data_source": "planet_osm"}}, {"type": "Feature", "geometry": {"type": "Point", "coordinates": [14.4172681, 50.053014]}, "properties": {"id": 2201763468, "man_made": "surveillance", "name": "Podolsk\u00e9 n\u00e1b\u0159e\u017e\u00ed", "surveillance": "public", "data_source": "planet_osm"}}, {"type": "Feature", "geometry": {"type": "Point", "coordinates": [14.4318807, 50.0627709]}, "properties": {"id": 2201763469, "man_made": "surveillance", "surveillance": "public", "data_source": "planet_osm"}}, {"type": "Feature", "geometry": {"type": "Point", "coordinates": [14.4711268, 50.0570265]}, "properties": {"id": 2201769391, "man_made": "surveillance", "name": "Bohdaleck\u00e1 - U Plyn\u00e1rny", "surveillance": "public", "data_source": "planet_osm"}}, {"type": "Feature", "geometry": {"type": "Point", "coordinates": [14.4575817, 50.0393758]}, "properties": {"id": 2208919670, "man_made": "surveillance", "name": "hala Ben Car", "surveillance": "public", "data_source": "planet_osm"}}, {"type": "Feature", "geometry": {"type": "Point", "coordinates": [14.4847794, 50.0299535]}, "properties": {"id": 2952453880, "man_made": "surveillance", "surveillance": "indoor", "surveillance:type": "camera", "surveillance:zone": "building", "data_source": "planet_osm"}}, {"type": "Feature", "geometry": {"type": "Point", "coordinates": [14.488687, 50.0304437]}, "properties": {"id": 2952457902, "man_made": "surveillance", "surveillance": "webcam", "surveillance:type": "camera", "surveillance:zone": "building", "data_source": "planet_osm"}}, {"type": "Feature", "geometry": {"type": "Point", "coordinates": [14.5358987, 50.028347]}, "properties": {"id": 2952508472, "camera:type": "fixed", "check_date": "2024-06-26", "man_made": "surveillance", "surveillance": "outdoor", "surveillance:type": "camera", "surveillance:zone": "building", "data_source": "planet_osm"}}, {"type": "Feature", "geometry": {"type": "Point", "coordinates": [14.4886869, 50.0302892]}, "properties": {"id": 2953903763, "man_made": "surveillance", "surveillance": "outdoor", "surveillance:type": "camera", "surveillance:zone": "parking", "data_source": "planet_osm"}}, {"type": "Feature", "geometry": {"type": "Point", "coordinates": [14.4891293, 50.030296]}, "properties": {"id": 2953907148, "man_made": "surveillance", "surveillance": "outdoor", "surveillance:type": "camera", "surveillance:zone": "parking", "data_source": "planet_osm"}}, {"type": "Feature", "geometry": {"type": "Point", "coordinates": [14.4847757, 50.0298051]}, "properties": {"id": 2953914525, "man_made": "surveillance", "surveillance": "indoor", "surveillance:type": "camera", "surveillance:zone": "building", "data_source": "planet_osm"}}, {"type": "Feature", "geometry": {"type": "Point", "coordinates": [14.484796, 50.0296432]}, "properties": {"id": 2953914526, "man_made": "surveillance", "surveillance": "indoor", "surveillance:type": "camera", "surveillance:zone": "building", "data_source": "planet_osm"}}, {"type": "Feature", "geometry": {"type": "Point", "coordinates": [14.48878, 50.0296797]}, "properties": {"id": 2954532059, "camera:type": "fixed", "check_date": "2022-02-13", "man_made": "surveillance", "surveillance": "outdoor", "surveillance:type": "camera", "surveillance:zone": "parking", "data_source": "planet_osm"}}, {"type": "Feature", "geometry": {"type": "Point", "coordinates": [14.4890076, 50.0296125]}, "properties": {"id": 2954532060, "camera:type": "fixed", "check_date": "2022-02-13", "man_made": "surveillance", "surveillance": "outdoor", "surveillance:type": "camera", "surveillance:zone": "parking", "data_source": "planet_osm"}}, {"type": "Feature", "geometry": {"type": "Point", "coordinates": [14.4893694, 50.0296223]}, "properties": {"id": 2954532061, "camera:type": "fixed", "check_date": "2022-02-13", "man_made": "surveillance", "surveillance": "outdoor", "surveillance:type": "camera", "surveillance:zone": "parking", "data_source": "planet_osm"}}, {"type": "Feature", "geometry": {"type": "Point", "coordinates": [14.4898273, 50.0303592]}, "properties": {"id": 2954546519, "man_made": "surveillance", "surveillance": "outdoor", "surveillance:type": "camera", "surveillance:zone": "parking", "data_source": "planet_osm"}}, {"type": "Feature", "geometry": {"type": "Point", "coordinates": [14.4891556, 50.0317699]}, "properties": {"id": 2956094635, "man_made": "surveillance", "surveillance": "outdoor", "surveillance:type": "camera", "surveillance:zone": "traffic", "data_source": "planet_osm"}}, {"type": "Feature", "geometry": {"type": "Point", "coordinates": [14.4893598, 50.0321246]}, "properties": {"id": 2956095595, "camera:type": "fixed", "check_date": "2023-02-02", "man_made": "surveillance", "surveillance": "outdoor", "surveillance:type": "camera", "surveillance:zone": "traffic", "data_source": "planet_osm"}}, {"type": "Feature", "geometry": {"type": "Point", "coordinates": [14.4896346, 50.0318226]}, "properties": {"id": 2958359236, "check_date": "2025-03-12", "man_made": "surveillance", "surveillance": "outdoor", "surveillance:type": "camera", "surveillance:zone": "traffic", "data_source": "planet_osm"}}, {"type": "Feature", "geometry": {"type": "Point", "coordinates": [14.4900346, 50.0319704]}, "properties": {"id": 2958361133, "man_made": "surveillance", "surveillance": "outdoor", "surveillance:type": "camera", "surveillance:zone": "traffic", "data_source": "planet_osm"}}, {"type": "Feature", "geometry": {"type": "Point", "coordinates": [14.4898393, 50.0320884]}, "properties": {"id": 2958361637, "man_made": "surveillance", "surveillance": "outdoor", "surveillance:type": "camera", "surveillance:zone": "traffic", "data_source": "planet_osm"}}, {"type": "Feature", "geometry": {"type": "Point", "coordinates": [14.4304751, 50.0626671]}, "properties": {"id": 3617135059, "man_made": "surveillance", "operator": "DPP, a.s.", "data_source": "planet_osm"}}, {"type": "Feature", "geometry": {"type": "Point", "coordinates": [14.4306044, 50.0626688]}, "properties": {"id": 3617135060, "man_made": "surveillance", "operator": "DPP, a.s.", "data_source": "planet_osm"}}, {"type": "Feature", "geometry": {"type": "Point", "coordinates": [14.430386, 50.0633897]}, "properties": {"id": 3617135090, "man_made": "surveillance", "operator": "DPP, a.s.", "data_source": "planet_osm"}}, {"type": "Feature", "geometry": {"type": "Point", "coordinates": [14.4304115, 50.0635822]}, "properties": {"id": 3617138294, "man_made": "surveillance", "operator": "DPP, a.s.", "source": "survey", "data_source": "planet_osm"}}, {"type": "Feature", "geometry": {"type": "Point", "coordinates": [14.4305978, 50.0635823]}, "properties": {"id": 3617138295, "man_made": "surveillance", "operator": "DPP, a.s.", "source": "survey", "data_source": "planet_osm"}}, {"type": "Feature", "geometry": {"type": "Point", "coordinates": [14.6863964, 49.9907936]}, "properties": {"id": 3830626150, "camera:type": "fixed", "man_made": "surveillance", "surveillance": "outdoor", "surveillance:type": "camera", "surveillance:zone": "town", "data_source": "planet_osm"}}, {"type": "Feature", "geometry": {"type": "Point", "coordinates": [14.579912, 50.0370897]}, "properties": {"id": 4112791246, "camera:mount": "wall", "camera:type": "fixed", "man_made": "surveillance", "surveillance": "outdoor", "surveillance:type": "camera", "data_source": "planet_osm"}}, {"type": "Feature", "geometry": {"type": "Point", "coordinates": [14.5799017, 50.0371064]}, "properties": {"id": 4112791249, "camera:direction": "283", "camera:mount": "pole", "camera:type": "fixed", "man_made": "surveillance", "operator": "Asko a.s.", "operator:wikidata": "Q67813942", "surveillance": "outdoor", "surveillance:type": "camera", "data_source": "planet_osm"}}, {"type": "Feature", "geometry": {"type": "Point", "coordinates": [14.5803724, 50.0374936]}, "properties": {"id": 4112791269, "camera:direction": "220", "camera:mount": "ceiling", "camera:type": "fixed", "man_made": "surveillance", "operator": "Asko a.s.", "operator:wikidata": "Q67813942", "surveillance:type": "camera", "data_source": "planet_osm"}}, {"type": "Feature", "geometry": {"type": "Point", "coordinates": [14.5797857, 50.037537]}, "properties": {"id": 4112791276, "camera:mount": "wall", "camera:type": "fixed", "man_made": "surveillance", "operator": "Asko a.s.", "operator:wikidata": "Q67813942", "surveillance:type": "camera", "data_source": "planet_osm"}}, {"type": "Feature", "geometry": {"type": "Point", "coordinates": [14.5795475, 50.0377063]}, "properties": {"id": 4112791693, "camera:direction": "50", "camera:mount": "wall", "camera:type": "fixed", "man_made": "surveillance", "operator": "Asko a.s.", "operator:wikidata": "Q67813942", "surveillance": "outdoor", "surveillance:type": "camera", "data_source": "planet_osm"}}, {"type": "Feature", "geometry": {"type": "Point", "coordinates": [14.579826, 50.0377236]}, "properties": {"id": 4112791694, "camera:mount": "pole", "camera:type": "fixed", "man_made": "surveillance", "operator": "Asko a.s.", "operator:wikidata": "Q67813942", "surveillance": "outdoor", "surveillance:type": "camera", "data_source": "planet_osm"}}, {"type": "Feature", "geometry": {"type": "Point", "coordinates": [14.5793393, 50.0378132]}, "properties": {"id": 4112791697, "camera:direction": "50", "camera:mount": "wall", "camera:type": "fixed", "man_made": "surveillance", "operator": "Asko a.s.", "operator:wikidata": "Q67813942", "surveillance": "outdoor", "surveillance:type": "camera", "data_source": "planet_osm"}}, {"type": "Feature", "geometry": {"type": "Point", "coordinates": [14.5793067, 50.0378299]}, "properties": {"id": 4112791698, "camera:direction": "220", "camera:mount": "wall", "camera:type": "fixed", "man_made": "surveillance", "operator": "Asko a.s.", "operator:wikidata": "Q67813942", "surveillance": "outdoor", "surveillance:type": "camera", "data_source": "planet_osm"}}, {"type": "Feature", "geometry": {"type": "Point", "coordinates": [14.5794776, 50.0379955]}, "properties": {"id": 4112791705, "camera:direction": "340", "camera:mount": "wall", "camera:type": "fixed", "man_made": "surveillance", "operator": "Asko a.s.", "operator:wikidata": "Q67813942", "surveillance": "outdoor", "surveillance:type": "camera", "data_source": "planet_osm"}}, {"type": "Feature", "geometry": {"type": "Point", "coordinates": [14.5788878, 50.0381755]}, "properties": {"id": 4112791715, "camera:direction": "220", "camera:mount": "ceiling", "camera:type": "fixed", "man_made": "surveillance", "operator": "Asko a.s.", "operator:wikidata": "Q67813942", "surveillance": "indoor", "surveillance:type": "camera", "data_source": "planet_osm"}}, {"type": "Feature", "geometry": {"type": "Point", "coordinates": [14.57862, 50.0382172]}, "properties": {"id": 4112791718, "camera:direction": "235", "camera:mount": "wall", "camera:type": "fixed", "man_made": "surveillance", "operator": "Asko a.s.", "operator:wikidata": "Q67813942", "surveillance": "outdoor", "surveillance:type": "camera", "data_source": "planet_osm"}}, {"type": "Feature", "geometry": {"type": "Point", "coordinates": [14.5795807, 50.0382309]}, "properties": {"id": 4112791719, "camera:direction": "310", "camera:mount": "wall", "camera:type": "fixed", "man_made": "surveillance", "operator": "Asko a.s.", "operator:wikidata": "Q67813942", "surveillance": "indoor", "surveillance:type": "camera", "data_source": "planet_osm"}}, {"type": "Feature", "geometry": {"type": "Point", "coordinates": [14.4206825, 49.9443318]}, "properties": {"id": 4997066297, "man_made": "surveillance", "data_source": "planet_osm"}}, {"type": "Feature", "geometry": {"type": "Point", "coordinates": [14.4212056, 49.9444208]}, "properties": {"id": 5001372955, "man_made": "surveillance", "data_source": "planet_osm"}}, {"type": "Feature", "geometry": {"type": "Point", "coordinates": [14.4212322, 49.9451818]}, "properties": {"id": 5001372956, "man_made": "surveillance", "data_source": "planet_osm"}}, {"type": "Feature", "geometry": {"type": "Point", "coordinates": [14.4313529, 49.942487]}, "properties": {"id": 5002805714, "man_made": "surveillance", "data_source": "planet_osm"}}, {"type": "Feature", "geometry": {"type": "Point", "coordinates": [14.4198899, 49.9445115]}, "properties": {"id": 5002805717, "man_made": "surveillance", "data_source": "planet_osm"}}, {"type": "Feature", "geometry": {"type": "Point", "coordinates": [14.5178862, 50.0187034]}, "properties": {"id": 5711363660, "enforcement": "toll", "man_made": "surveillance", "operator": "MDCR", "source": "bing:orto", "surveillance:type": "camera", "data_source": "planet_osm"}}, {"type": "Feature", "geometry": {"type": "Point", "coordinates": [14.5181637, 50.0189921]}, "properties": {"id": 5711363661, "enforcement": "toll", "man_made": "surveillance", "operator": "MDCR", "source": "bing:orto", "surveillance:type": "camera", "data_source": "planet_osm"}}, {"type": "Feature", "geometry": {"type": "Point", "coordinates": [14.5812265, 49.9966799]}, "properties": {"id": 5711363662, "enforcement": "toll", "man_made": "surveillance", "operator": "MDCR", "source": "bing:orto", "surveillance:type": "camera", "data_source": "planet_osm"}}, {"type": "Feature", "geometry": {"type": "Point", "coordinates": [14.5815899, 49.9969334]}, "properties": {"id": 5711363663, "enforcement": "toll", "man_made": "surveillance", "operator": "MDCR", "source": "bing:orto", "surveillance:type": "camera", "data_source": "planet_osm"}}, {"type": "Feature", "geometry": {"type": "Point", "coordinates": [14.6267302, 49.9636223]}, "properties": {"id": 5711363664, "enforcement": "toll", "man_made": "surveillance", "operator": "MDCR", "source": "bing:orto", "surveillance:type": "camera", "data_source": "planet_osm"}}, {"type": "Feature", "geometry": {"type": "Point", "coordinates": [14.627166, 49.9638311]}, "properties": {"id": 5711363665, "enforcement": "toll", "man_made": "surveillance", "operator": "MDCR", "source": "bing:orto", "surveillance:type": "camera", "data_source": "planet_osm"}}, {"type": "Feature", "geometry": {"type": "Point", "coordinates": [14.6697139, 49.9407727]}, "properties": {"id": 5711363666, "enforcement": "toll", "man_made": "surveillance", "operator": "MDCR", "source": "bing:orto", "surveillance:type": "camera", "data_source": "planet_osm"}}, {"type": "Feature", "geometry": {"type": "Point", "coordinates": [14.669915, 49.9410765]}, "properties": {"id": 5711363667, "enforcement": "toll", "man_made": "surveillance", "operator": "MDCR", "source": "bing:orto", "surveillance:type": "camera", "data_source": "planet_osm"}}, {"type": "Feature", "geometry": {"type": "Point", "coordinates": [14.7442011, 49.8961702]}, "properties": {"id": 5711363668, "enforcement": "toll", "man_made": "surveillance", "operator": "Ministerstvo dopravy \u010cesk\u00e9 republiky", "operator:short": "MD\u010cR", "operator:wikidata": "Q11781508", "source": "bing:orto", "surveillance:type": "camera", "data_source": "planet_osm"}}, {"type": "Feature", "geometry": {"type": "Point", "coordinates": [14.7443418, 49.8962344]}, "properties": {"id": 5711363669, "enforcement": "toll", "man_made": "surveillance", "operator": "Ministerstvo dopravy \u010cesk\u00e9 republiky", "operator:short": "MD\u010cR", "operator:wikidata": "Q11781508", "source": "bing:orto", "surveillance:type": "camera", "data_source": "planet_osm"}}, {"type": "Feature", "geometry": {"type": "Point", "coordinates": [14.4306062, 50.0635944]}, "properties": {"id": 6258887718, "man_made": "surveillance", "operator": "DPP, a.s.", "source": "survey", "data_source": "planet_osm"}}, {"type": "Feature", "geometry": {"type": "Point", "coordinates": [14.5149369, 50.0340227]}, "properties": {"id": 6812920388, "man_made": "surveillance", "data_source": "planet_osm"}}, {"type": "Feature", "geometry": {"type": "Point", "coordinates": [14.5198807, 50.0363931]}, "properties": {"id": 6815080086, "man_made": "surveillance", "data_source": "planet_osm"}}, {"type": "Feature", "geometry": {"type": "Point", "coordinates": [14.496046, 49.985574]}, "properties": {"id": 7983866508, "camera:direction": "210", "camera:mount": "pole", "camera:type": "fixed", "man_made": "surveillance", "surveillance": "public", "surveillance:type": "camera", "surveillance:zone": "traffic", "data_source": "planet_osm"}}, {"type": "Feature", "geometry": {"type": "Point", "coordinates": [14.4957178, 49.9854485]}, "properties": {"id": 7983866557, "camera:direction": "90", "camera:mount": "pole", "camera:type": "fixed", "man_made": "surveillance", "surveillance": "public", "surveillance:type": "camera", "surveillance:zone": "traffic", "data_source": "planet_osm"}}, {"type": "Feature", "geometry": {"type": "Point", "coordinates": [14.4957183, 49.985452]}, "properties": {"id": 7987017037, "camera:mount": "pole", "camera:type": "panning", "man_made": "surveillance", "surveillance:type": "camera", "data_source": "planet_osm"}}, {"type": "Feature", "geometry": {"type": "Point", "coordinates": [14.4951577, 49.984198]}, "properties": {"id": 8111127771, "camera:mount": "pole", "camera:type": "dome", "man_made": "surveillance", "surveillance:type": "camera", "surveillance:zone": "residential", "data_source": "planet_osm"}}, {"type": "Feature", "geometry": {"type": "Point", "coordinates": [14.6774876, 50.001226]}, "properties": {"id": 8354000838, "man_made": "surveillance", "material": "concrete", "power": "pole", "surveillance": "outdoor", "data_source": "planet_osm"}}], "networks": []}