{"type": "FeatureCollection", "features": [{"type": "Feature", "geometry": {"type": "Point", "coordinates": [-66.6395624, 45.9626689]}, "properties": {"camera:direction": "0", "camera:mount": "wall", "camera:type": "fixed", "contact:webcam": "https://www.youtube.com/watch?v=ek_9xlxaIxc", "man_made": "surveillance", "name": "Saint John River Web Camera", "name:en": "Saint John River Web Camera", "name:fr": "Cam\u00e9ra web Rivi\u00e8re Saint John", "surveillance": "public", "surveillance:type": "camera", "surveillance:zone": "traffic"}}, {"type": "Feature", "geometry": {"type": "Point", "coordinates": [-66.657798, 45.9801503]}, "properties": {"camera:mount": "pole", "camera:type": "dome", "man_made": "surveillance", "surveillance": "public", "surveillance:type": "camera", "surveillance:zone": "traffic"}}, {"type": "Feature", "geometry": {"type": "Point", "coordinates": [-66.641344, 45.9718329]}, "properties": {"camera:direction": "165", "camera:mount": "pole", "camera:type": "fixed", "contact:webcam": "https://www.youtube.com/watch?v=3oVWR8jcSdM", "man_made": "surveillance", "name": "Westmorland Street Bridge Facing South Web Camera", "name:en": "Westmorland Street Bridge Facing South Web Camera", "name:fr": "Pont de la rue Westmorland face au sud", "surveillance": "public", "surveillance:type": "camera", "surveillance:zone": "traffic"}}, {"type": "Feature", "geometry": {"type": "Point", "coordinates": [-66.6249497, 45.9577978]}, "properties": {"man_made": "surveillance", "power": "pole", "surveillance:type": "camera"}}, {"type": "Feature", "geometry": {"type": "Point", "coordinates": [-66.6446346, 45.965189]}, "properties": {"camera:direction": "50", "camera:mount": "pole", "camera:type": "fixed", "contact:webcam": "https://www.youtube.com/watch?v=wZWdSpggd1o", "man_made": "surveillance", "name": "Westmorland Street Bridge Facing North Web Camera", "name:en": "Westmorland Street Bridge Facing North Web Camera", "name:fr": "Cam\u00e9ra web pont de la rue Westmorland face au nord", "surveillance": "public", "surveillance:type": "camera", "surveillance:zone": "traffic"}}, {"type": "Feature", "geometry": {"type": "Point", "coordinates": [-66.6384578, 45.9619721]}, "properties": {"camera:direction": "255", "camera:mount": "pole", "camera:type": "fixed", "contact:webcam": "https://www.youtube.com/watch?v=FC9U5PBD5Co", "man_made": "surveillance", "name": "Officers' Square Web Camera", "name:en": "Officers' Square Web Camera", "name:fr": "Cam\u00e9ra web Place des Officiers", "surveillance": "public", "surveillance:type": "camera", "surveillance:zone": "park"}}, {"type": "Feature", "geometry": {"type": "Point", "coordinates": [-66.6432963, 45.9629668]}, "properties": {"camera:direction": "0", "camera:mount": "pole", "camera:type": "fixed", "contact:webcam": "https://www.youtube.com/watch?v=VoOt8QONHYM", "man_made": "surveillance", "name": "City Hall Web Camera", "name:en": "City Hall Web Camera", "name:fr": "Cam\u00e9ra web H\u00f4tel de ville", "surveillance": "public", "surveillance:type": "camera", "surveillance:zone": "building"}}, {"type": "Feature", "geometry": {"type": "Point", "coordinates": [-66.6573043, 45.9797203]}, "properties": {"camera:mount": "pole", "camera:type": "dome", "man_made": "surveillance", "surveillance": "public", "surveillance:type": "camera", "surveillance:zone": "park"}}], "networks": []}